[
  {
    "naseleno_mqsto": "с. Каниц",
    "amount": "1",
    "lat": "44.0228307",
    "lon": "22.5879651",
    "formatted": "Каниц, Видин, България",
    "district": null,
    "name": "Каниц",
    "suburb": null,
    "postcode": null,
    "city": "Каниц",
    "county": "Видин",
    "country": "България",
    "country_code": "bg"
  },
  {
    "naseleno_mqsto": "с. Деветаците",
    "amount": "1",
    "lat": "42.92781",
    "lon": "25.58915",
    "formatted": "Деветаците, Велико Търново, България",
    "district": null,
    "name": "Деветаците",
    "suburb": null,
    "postcode": null,
    "city": "Деветаците",
    "county": "Велико Търново",
    "country": "България",
    "country_code": "bg"
  },
  {
    "naseleno_mqsto": "с. Ивановци",
    "amount": "1",
    "lat": "42.81911",
    "lon": "25.65567",
    "formatted": "Ивановци, Велико Търново, България",
    "district": null,
    "name": "Ивановци",
    "suburb": null,
    "postcode": null,
    "city": "Ивановци",
    "county": "Велико Търново",
    "country": "България",
    "country_code": "bg"
  },
  {
    "naseleno_mqsto": "с. Босевци",
    "amount": "1",
    "lat": "42.973582",
    "lon": "25.9584248",
    "formatted": "Босевци, Велико Търново, България",
    "district": null,
    "name": "Босевци",
    "suburb": null,
    "postcode": null,
    "city": "Босевци",
    "county": "Велико Търново",
    "country": "България",
    "country_code": "bg"
  },
  {
    "naseleno_mqsto": "с. Ганев дол",
    "amount": "1",
    "lat": "42.95116",
    "lon": "25.96454",
    "formatted": "Ганев дол, Велико Търново, България",
    "district": null,
    "name": "Ганев дол",
    "suburb": null,
    "postcode": null,
    "city": "Ганев дол",
    "county": "Велико Търново",
    "country": "България",
    "country_code": "bg"
  },
  {
    "naseleno_mqsto": "с. Горска",
    "amount": "1",
    "lat": "42.897",
    "lon": "26.00758",
    "formatted": "Горска, Велико Търново, България",
    "district": null,
    "name": "Горска",
    "suburb": null,
    "postcode": null,
    "city": "Горска",
    "county": "Велико Търново",
    "country": "България",
    "country_code": "bg"
  },
  {
    "naseleno_mqsto": "с. Дайновци",
    "amount": "1",
    "lat": "42.9940425",
    "lon": "25.9833418",
    "formatted": "Дайновци, Велико Търново, България",
    "district": null,
    "name": "Дайновци",
    "suburb": null,
    "postcode": null,
    "city": "Дайновци",
    "county": "Велико Търново",
    "country": "България",
    "country_code": "bg"
  },
  {
    "naseleno_mqsto": "с. Драгневци",
    "amount": "1",
    "lat": "42.8122",
    "lon": "25.51603",
    "formatted": "5360 Драгневци, България",
    "district": null,
    "name": "Драгневци",
    "suburb": null,
    "postcode": "5360",
    "city": "Драгневци",
    "county": "Габрово",
    "country": "България",
    "country_code": "bg"
  },
  {
    "naseleno_mqsto": "с. Дуковци",
    "amount": "1",
    "lat": "42.88138",
    "lon": "25.82485",
    "formatted": "Дуковци, Велико Търново, България",
    "district": null,
    "name": "Дуковци",
    "suburb": null,
    "postcode": null,
    "city": "Дуковци",
    "county": "Велико Търново",
    "country": "България",
    "country_code": "bg"
  },
  {
    "naseleno_mqsto": "с. Колари",
    "amount": "1",
    "lat": "42.8847615",
    "lon": "25.9786213",
    "formatted": "Колари, Велико Търново, България",
    "district": null,
    "name": "Колари",
    "suburb": null,
    "postcode": null,
    "city": "Колари",
    "county": "Велико Търново",
    "country": "България",
    "country_code": "bg"
  },
  {
    "naseleno_mqsto": "с. Махалници",
    "amount": "1",
    "lat": "42.9283015",
    "lon": "25.8199096",
    "formatted": "Махалници, Яковци, България",
    "district": null,
    "name": "Махалници",
    "suburb": "Махалници",
    "postcode": null,
    "city": "Яковци",
    "county": "Велико Търново",
    "country": "България",
    "country_code": "bg"
  },
  {
    "naseleno_mqsto": "с. Миневци",
    "amount": "1",
    "lat": "42.9151572",
    "lon": "25.3742788",
    "formatted": "кв. Миневци, Донино, България",
    "district": null,
    "name": "кв. Миневци",
    "suburb": "кв. Миневци",
    "postcode": "5342",
    "city": "Донино",
    "county": "Габрово",
    "country": "България",
    "country_code": "bg"
  },
  {
    "naseleno_mqsto": "с. Тънки рът",
    "amount": "1",
    "lat": "42.9954077",
    "lon": "25.9968546",
    "formatted": "Тънки рът, Велико Търново, България",
    "district": null,
    "name": "Тънки рът",
    "suburb": null,
    "postcode": null,
    "city": "Тънки рът",
    "county": "Велико Търново",
    "country": "България",
    "country_code": "bg"
  },
  {
    "naseleno_mqsto": "с. Новогорци",
    "amount": "1",
    "lat": "43.0213618",
    "lon": "26.0929413",
    "formatted": "Новогорци, Велико Търново, България",
    "district": null,
    "name": "Новогорци",
    "suburb": null,
    "postcode": null,
    "city": "Новогорци",
    "county": "Велико Търново",
    "country": "България",
    "country_code": "bg"
  },
  {
    "naseleno_mqsto": "с. Чистово",
    "amount": "1",
    "lat": "43.0314275",
    "lon": "26.0740432",
    "formatted": "Чистово, Велико Търново, България",
    "district": null,
    "name": "Чистово",
    "suburb": null,
    "postcode": null,
    "city": "Чистово",
    "county": "Велико Търново",
    "country": "България",
    "country_code": "bg"
  },
  {
    "naseleno_mqsto": "с. Семерджиите",
    "amount": "1",
    "lat": "42.8940897",
    "lon": "25.3934394",
    "formatted": "5340 Семерджиите, България",
    "district": null,
    "name": "Семерджиите",
    "suburb": null,
    "postcode": "5340",
    "city": "Семерджиите",
    "county": "Габрово",
    "country": "България",
    "country_code": "bg"
  },
  {
    "naseleno_mqsto": "с. Еленците",
    "amount": "1",
    "lat": "43.03261",
    "lon": "25.44483",
    "formatted": "Еленците, Габрово, България",
    "district": null,
    "name": "Еленците",
    "suburb": null,
    "postcode": null,
    "city": "Еленците",
    "county": "Габрово",
    "country": "България",
    "country_code": "bg"
  },
  {
    "naseleno_mqsto": "с. Дисманица",
    "amount": "1",
    "lat": "42.90155",
    "lon": "24.91242",
    "formatted": "Баева ливада, Габрово, България",
    "district": null,
    "name": "Баева ливада",
    "suburb": null,
    "postcode": null,
    "city": "Баева ливада",
    "county": "Габрово",
    "country": "България",
    "country_code": "bg"
  },
  {
    "naseleno_mqsto": "с. Горни Цоневци",
    "amount": "1",
    "lat": "42.8080412",
    "lon": "25.4529853",
    "formatted": "5360 Горни Цоневци, България",
    "district": null,
    "name": "Горни Цоневци",
    "suburb": null,
    "postcode": "5360",
    "city": "Горни Цоневци",
    "county": "Габрово",
    "country": "България",
    "country_code": "bg"
  },
  {
    "naseleno_mqsto": "с. Долни Радковци",
    "amount": "1",
    "lat": "42.831612",
    "lon": "25.4293785",
    "formatted": "с. Долни Радковци, Габрово, България",
    "district": null,
    "name": "с. Долни Радковци",
    "suburb": null,
    "postcode": null,
    "city": "с. Долни Радковци",
    "county": "Габрово",
    "country": "България",
    "country_code": "bg"
  },
  {
    "naseleno_mqsto": "с. Киселковци",
    "amount": "1",
    "lat": "42.8269042",
    "lon": "25.4475676",
    "formatted": "5360 Киселковци, България",
    "district": null,
    "name": "Киселковци",
    "suburb": null,
    "postcode": "5360",
    "city": "Киселковци",
    "county": "Габрово",
    "country": "България",
    "country_code": "bg"
  },
  {
    "naseleno_mqsto": "с. Райнушковци",
    "amount": "1",
    "lat": "42.8634128",
    "lon": "25.5589468",
    "formatted": "Райнушковци, Габрово, България",
    "district": null,
    "name": "Райнушковци",
    "suburb": null,
    "postcode": null,
    "city": "Райнушковци",
    "county": "Габрово",
    "country": "България",
    "country_code": "bg"
  },
  {
    "naseleno_mqsto": "с. Калнище",
    "amount": "1",
    "lat": "43.0339",
    "lon": "26.20653",
    "formatted": "7962 Калнище, България",
    "district": null,
    "name": "Калнище",
    "suburb": null,
    "postcode": "7962",
    "city": "Калнище",
    "county": "Търговище",
    "country": "България",
    "country_code": "bg"
  },
  {
    "naseleno_mqsto": "с. Слънчовец",
    "amount": "1",
    "lat": "43.02978",
    "lon": "26.15053",
    "formatted": "7963 Слънчовец, България",
    "district": null,
    "name": "Слънчовец",
    "suburb": null,
    "postcode": "7963",
    "city": "Слънчовец",
    "county": "Търговище",
    "country": "България",
    "country_code": "bg"
  },
  {
    "naseleno_mqsto": "с. Яребично",
    "amount": "1",
    "lat": "43.09861",
    "lon": "26.12088",
    "formatted": "Яребично, Търговище, България",
    "district": null,
    "name": null,
    "suburb": null,
    "postcode": null,
    "city": "Яребично",
    "county": "Търговище",
    "country": "България",
    "country_code": "bg"
  },
  {
    "naseleno_mqsto": "с. Тракийци",
    "amount": "1",
    "lat": "42.167614",
    "lon": "27.2509057",
    "formatted": "8348 Тракийци, България",
    "district": null,
    "name": "Тракийци",
    "suburb": null,
    "postcode": "8348",
    "city": "Тракийци",
    "county": "Бургас",
    "country": "България",
    "country_code": "bg"
  },
  {
    "naseleno_mqsto": "с. Бънзарето",
    "amount": "1",
    "lat": "42.7039958",
    "lon": "25.6073144",
    "formatted": "Бънзарето, Стара Загора, България",
    "district": null,
    "name": "Бънзарето",
    "suburb": null,
    "postcode": null,
    "city": "Бънзарето",
    "county": "Стара Загора",
    "country": "България",
    "country_code": "bg"
  },
  {
    "naseleno_mqsto": "с. Държавен",
    "amount": "1",
    "lat": "42.72937",
    "lon": "25.56491",
    "formatted": "Държавен, Стара Загора, България",
    "district": null,
    "name": "Държавен",
    "suburb": null,
    "postcode": null,
    "city": "Държавен",
    "county": "Стара Загора",
    "country": "България",
    "country_code": "bg"
  },
  {
    "naseleno_mqsto": "с. Вихрен",
    "amount": "1",
    "lat": "41.61434",
    "lon": "23.33189",
    "formatted": "2800 Вихрен, България",
    "district": null,
    "name": "Вихрен",
    "suburb": null,
    "postcode": "2800",
    "city": "Вихрен",
    "county": "Благоевград",
    "country": "България",
    "country_code": "bg"
  },
  {
    "naseleno_mqsto": "с. Колибите",
    "amount": "1",
    "lat": "41.58284",
    "lon": "23.02848",
    "formatted": "2838 Колибите, България",
    "district": null,
    "name": "Колибите",
    "suburb": null,
    "postcode": "2838",
    "city": "Колибите",
    "county": "Благоевград",
    "country": "България",
    "country_code": "bg"
  },
  {
    "naseleno_mqsto": "с. Гурбановци",
    "amount": "1",
    "lat": "42.35626",
    "lon": "22.47389",
    "formatted": "Гурбановци, Кюстендил, България",
    "district": null,
    "name": "Гурбановци",
    "suburb": null,
    "postcode": null,
    "city": "Кюстендил",
    "county": "Кюстендил",
    "country": "България",
    "country_code": "bg"
  },
  {
    "naseleno_mqsto": "с. Ивановци",
    "amount": "1",
    "lat": "42.81911",
    "lon": "25.65567",
    "formatted": "Ивановци, Велико Търново, България",
    "district": null,
    "name": "Ивановци",
    "suburb": null,
    "postcode": null,
    "city": "Ивановци",
    "county": "Велико Търново",
    "country": "България",
    "country_code": "bg"
  },
  {
    "naseleno_mqsto": "с. Режинци",
    "amount": "1",
    "lat": "42.40235",
    "lon": "22.55774",
    "formatted": "Режинци, Кюстендил, България",
    "district": null,
    "name": "Режинци",
    "suburb": null,
    "postcode": null,
    "city": "Кюстендил",
    "county": "Кюстендил",
    "country": "България",
    "country_code": "bg"
  },
  {
    "naseleno_mqsto": "с. Цървендол",
    "amount": "1",
    "lat": "42.2797118",
    "lon": "22.4479421",
    "formatted": "Цървендол, Кюстендил, България",
    "district": null,
    "name": "Цървендол",
    "suburb": null,
    "postcode": null,
    "city": "Кюстендил",
    "county": "Кюстендил",
    "country": "България",
    "country_code": "bg"
  },
  {
    "naseleno_mqsto": "с. Къшле",
    "amount": "1",
    "lat": "42.7077395",
    "lon": "22.4939165",
    "formatted": "Къшле, Перник, България",
    "district": null,
    "name": "Къшле",
    "suburb": null,
    "postcode": null,
    "city": "Къшле",
    "county": "Перник",
    "country": "България",
    "country_code": "bg"
  },
  {
    "naseleno_mqsto": "с. Долна Василица",
    "amount": "1",
    "lat": "42.3144968",
    "lon": "23.8910462",
    "formatted": "2035 Долна Василица, България",
    "district": null,
    "name": "Долна Василица",
    "suburb": null,
    "postcode": "2035",
    "city": "Долна Василица",
    "county": "Софийска",
    "country": "България",
    "country_code": "bg"
  },
  {
    "naseleno_mqsto": "с. Черковище",
    "amount": "1",
    "lat": "42.599939",
    "lon": "23.9171748",
    "formatted": "2072 Черковище, България",
    "district": null,
    "name": "Черковище",
    "suburb": null,
    "postcode": "2072",
    "city": "Черковище",
    "county": "Софийска",
    "country": "България",
    "country_code": "bg"
  },
  {
    "naseleno_mqsto": "с. Върли дол",
    "amount": "1",
    "lat": "41.4657372",
    "lon": "25.021434",
    "formatted": "4990 Върли дол, България",
    "district": null,
    "name": "Върли дол",
    "suburb": null,
    "postcode": "4990",
    "city": "Върли дол",
    "county": "Смолян",
    "country": "България",
    "country_code": "bg"
  },
  {
    "naseleno_mqsto": "с. Висока",
    "amount": "1",
    "lat": "41.6722801",
    "lon": "25.5101883",
    "formatted": "Висока поляна, 6674 Кърджали, България",
    "district": null,
    "name": "Висока поляна",
    "suburb": null,
    "postcode": "6674",
    "city": "Кърджали",
    "county": "Кърджали",
    "country": "България",
    "country_code": "bg"
  },
  {
    "naseleno_mqsto": "с. Крушово",
    "amount": "1",
    "lat": "42.545212",
    "lon": "27.0578197",
    "formatted": "8482 Крушово, България",
    "district": null,
    "name": "Крушово",
    "suburb": null,
    "postcode": "8482",
    "city": "Крушово",
    "county": "Бургас",
    "country": "България",
    "country_code": "bg"
  },
  {
    "naseleno_mqsto": "с. Долие",
    "amount": "1",
    "lat": "41.5624878",
    "lon": "24.9130445",
    "formatted": "Долие, Смолян, България",
    "district": null,
    "name": "Долие",
    "suburb": null,
    "postcode": null,
    "city": "Долие",
    "county": "Смолян",
    "country": "България",
    "country_code": "bg"
  },
  {
    "naseleno_mqsto": "с. Дъбова",
    "amount": "1",
    "lat": "42.9694733",
    "lon": "26.2409822",
    "formatted": "Дъбова, Сливен, България",
    "district": null,
    "name": "Дъбова",
    "suburb": null,
    "postcode": null,
    "city": "Дъбова",
    "county": "Сливен",
    "country": "България",
    "country_code": "bg"
  },
  {
    "naseleno_mqsto": "с. Гнездаре",
    "amount": "1",
    "lat": "41.38869",
    "lon": "25.92801",
    "formatted": "Гнездаре, Хасково, България",
    "district": null,
    "name": "Гнездаре",
    "suburb": null,
    "postcode": null,
    "city": "Гнездаре",
    "county": "Хасково",
    "country": "България",
    "country_code": "bg"
  },
  {
    "naseleno_mqsto": "с. Долноселци",
    "amount": "1",
    "lat": "41.6043",
    "lon": "25.98917",
    "formatted": "Долноселци, Хасково, България",
    "district": null,
    "name": "Долноселци",
    "suburb": null,
    "postcode": null,
    "city": "Долноселци",
    "county": "Хасково",
    "country": "България",
    "country_code": "bg"
  },
  {
    "naseleno_mqsto": "с. Шипикова махала",
    "amount": "2",
    "lat": "44.0092216",
    "lon": "22.4705621",
    "formatted": "Шипикова махала, Видин, България",
    "district": null,
    "name": "Шипикова махала",
    "suburb": null,
    "postcode": null,
    "city": "Шипикова махала",
    "county": "Видин",
    "country": "България",
    "country_code": "bg"
  },
  {
    "naseleno_mqsto": "с. Бойчовци",
    "amount": "2",
    "lat": "42.86258",
    "lon": "25.63932",
    "formatted": "5045 Бойчовци, България",
    "district": null,
    "name": "Бойчовци",
    "suburb": null,
    "postcode": "5045",
    "city": "Бойчовци",
    "county": "Велико Търново",
    "country": "България",
    "country_code": "bg"
  },
  {
    "naseleno_mqsto": "с. Горановци",
    "amount": "2",
    "lat": "42.79992",
    "lon": "25.62872",
    "formatted": "Горановци, Велико Търново, България",
    "district": null,
    "name": "Горановци",
    "suburb": null,
    "postcode": null,
    "city": "Горановци",
    "county": "Велико Търново",
    "country": "България",
    "country_code": "bg"
  },
  {
    "naseleno_mqsto": "с. Илевци",
    "amount": "2",
    "lat": "42.86597",
    "lon": "25.67881",
    "formatted": "5045 Илевци, България",
    "district": null,
    "name": "Илевци",
    "suburb": null,
    "postcode": "5045",
    "city": "Илевци",
    "county": "Велико Търново",
    "country": "България",
    "country_code": "bg"
  },
  {
    "naseleno_mqsto": "с. Клъшка река",
    "amount": "2",
    "lat": "42.81657",
    "lon": "25.6460601",
    "formatted": "Клъшка река, Велико Търново, България",
    "district": null,
    "name": "Клъшка река",
    "suburb": null,
    "postcode": null,
    "city": "Клъшка река",
    "county": "Велико Търново",
    "country": "България",
    "country_code": "bg"
  },
  {
    "naseleno_mqsto": "с. Самсиите",
    "amount": "2",
    "lat": "42.9286641",
    "lon": "25.6319968",
    "formatted": "Самсиите, Бояновци, България",
    "district": null,
    "name": "Самсиите",
    "suburb": "Самсиите",
    "postcode": "5055",
    "city": "Бояновци",
    "county": "Велико Търново",
    "country": "България",
    "country_code": "bg"
  },
  {
    "naseleno_mqsto": "с. Драгийци",
    "amount": "2",
    "lat": "42.86017",
    "lon": "25.78056",
    "formatted": "Драгийци, Велико Търново, България",
    "district": null,
    "name": "Драгийци",
    "suburb": null,
    "postcode": null,
    "city": "Драгийци",
    "county": "Велико Търново",
    "country": "България",
    "country_code": "bg"
  },
  {
    "naseleno_mqsto": "с. Дърлевци",
    "amount": "2",
    "lat": "42.9690735",
    "lon": "25.8841959",
    "formatted": "5070 Дърлевци, България",
    "district": null,
    "name": "Дърлевци",
    "suburb": null,
    "postcode": "5070",
    "city": "Дърлевци",
    "county": "Велико Търново",
    "country": "България",
    "country_code": "bg"
  },
  {
    "naseleno_mqsto": "с. Радовци",
    "amount": "2",
    "lat": "42.91918",
    "lon": "25.50967",
    "formatted": "5380 Радовци, България",
    "district": null,
    "name": "Радовци",
    "suburb": null,
    "postcode": "5380",
    "city": "Радовци",
    "county": "Габрово",
    "country": "България",
    "country_code": "bg"
  },
  {
    "naseleno_mqsto": "с. Топузи",
    "amount": "2",
    "lat": "42.8430882",
    "lon": "25.9213947",
    "formatted": "Топузи, Велико Търново, България",
    "district": null,
    "name": "Топузи",
    "suburb": null,
    "postcode": null,
    "city": "Топузи",
    "county": "Велико Търново",
    "country": "България",
    "country_code": "bg"
  },
  {
    "naseleno_mqsto": "с. Горна Хаджийска",
    "amount": "2",
    "lat": "43.0372605",
    "lon": "25.9729394",
    "formatted": "Горна Хаджийска, Велико Търново, България",
    "district": null,
    "name": "Горна Хаджийска",
    "suburb": null,
    "postcode": null,
    "city": "Горна Хаджийска",
    "county": "Велико Търново",
    "country": "България",
    "country_code": "bg"
  },
  {
    "naseleno_mqsto": "с. Бекриите",
    "amount": "2",
    "lat": "42.9357053",
    "lon": "25.2996805",
    "formatted": "5345 Бекриите, България",
    "district": null,
    "name": "Бекриите",
    "suburb": null,
    "postcode": "5345",
    "city": "Бекриите",
    "county": "Габрово",
    "country": "България",
    "country_code": "bg"
  },
  {
    "naseleno_mqsto": "с. Вълков дол",
    "amount": "2",
    "lat": "42.8933156",
    "lon": "25.4024445",
    "formatted": "5340 Вълков дол, България",
    "district": null,
    "name": "Вълков дол",
    "suburb": null,
    "postcode": "5340",
    "city": "Вълков дол",
    "county": "Габрово",
    "country": "България",
    "country_code": "bg"
  },
  {
    "naseleno_mqsto": "с. Езерото",
    "amount": "2",
    "lat": "42.7643586",
    "lon": "25.3620141",
    "formatted": "Езерото, Габрово, България",
    "district": null,
    "name": "Езерото",
    "suburb": null,
    "postcode": null,
    "city": "Езерото",
    "county": "Габрово",
    "country": "България",
    "country_code": "bg"
  },
  {
    "naseleno_mqsto": "с. Редешковци",
    "amount": "2",
    "lat": "42.8944477",
    "lon": "25.4060573",
    "formatted": "5340 Редешковци, България",
    "district": null,
    "name": "Редешковци",
    "suburb": null,
    "postcode": "5340",
    "city": "Редешковци",
    "county": "Габрово",
    "country": "България",
    "country_code": "bg"
  },
  {
    "naseleno_mqsto": "с. Дебелцово",
    "amount": "2",
    "lat": "43.09947",
    "lon": "25.09185",
    "formatted": "Дебелцово, Габрово, България",
    "district": null,
    "name": "Дебелцово",
    "suburb": null,
    "postcode": null,
    "city": "Дебелцово",
    "county": "Габрово",
    "country": "България",
    "country_code": "bg"
  },
  {
    "naseleno_mqsto": "с. Брежниците",
    "amount": "2",
    "lat": "42.80499",
    "lon": "25.51556",
    "formatted": "5360 Брежниците, България",
    "district": null,
    "name": "Брежниците",
    "suburb": null,
    "postcode": "5360",
    "city": "Брежниците",
    "county": "Габрово",
    "country": "България",
    "country_code": "bg"
  },
  {
    "naseleno_mqsto": "с. Бърдарите",
    "amount": "2",
    "lat": "42.8115758",
    "lon": "25.4385774",
    "formatted": "5360 Бърдарите, България",
    "district": null,
    "name": "Бърдарите",
    "suburb": null,
    "postcode": "5360",
    "city": "Бърдарите",
    "county": "Габрово",
    "country": "България",
    "country_code": "bg"
  },
  {
    "naseleno_mqsto": "с. Велчовци",
    "amount": "2",
    "lat": "42.80301",
    "lon": "25.57195",
    "formatted": "Велчовци, Габрово, България",
    "district": null,
    "name": "Велчовци",
    "suburb": null,
    "postcode": null,
    "city": "Велчовци",
    "county": "Габрово",
    "country": "България",
    "country_code": "bg"
  },
  {
    "naseleno_mqsto": "с. Керените",
    "amount": "2",
    "lat": "42.8964",
    "lon": "25.50719",
    "formatted": "5350 Керените, България",
    "district": null,
    "name": "Керените",
    "suburb": null,
    "postcode": "5350",
    "city": "Керените",
    "county": "Габрово",
    "country": "България",
    "country_code": "bg"
  },
  {
    "naseleno_mqsto": "с. Креслювци",
    "amount": "2",
    "lat": "42.7979788",
    "lon": "25.5325941",
    "formatted": "Креслювци, Габрово, България",
    "district": null,
    "name": "Креслювци",
    "suburb": null,
    "postcode": null,
    "city": "Креслювци",
    "county": "Габрово",
    "country": "България",
    "country_code": "bg"
  },
  {
    "naseleno_mqsto": "с. Кръстец",
    "amount": "2",
    "lat": "42.7697712",
    "lon": "25.5511196",
    "formatted": "Кръстец, Габрово, България",
    "district": null,
    "name": "Кръстец",
    "suburb": null,
    "postcode": null,
    "city": "Кръстец",
    "county": "Габрово",
    "country": "България",
    "country_code": "bg"
  },
  {
    "naseleno_mqsto": "с. Ошаните",
    "amount": "2",
    "lat": "43.68771",
    "lon": "22.54985",
    "formatted": "Ошане, Видин, България",
    "district": null,
    "name": "Ошане",
    "suburb": null,
    "postcode": null,
    "city": "Ошане",
    "county": "Видин",
    "country": "България",
    "country_code": "bg"
  },
  {
    "naseleno_mqsto": "с. Раевци",
    "amount": "2",
    "lat": "42.8691",
    "lon": "25.59941",
    "formatted": "Раевци, Габрово, България",
    "district": null,
    "name": "Раевци",
    "suburb": null,
    "postcode": null,
    "city": "Раевци",
    "county": "Габрово",
    "country": "България",
    "country_code": "bg"
  },
  {
    "naseleno_mqsto": "с. Стайновци",
    "amount": "2",
    "lat": "42.9005511",
    "lon": "25.4921604",
    "formatted": "5350 Стайновци, България",
    "district": null,
    "name": "Стайновци",
    "suburb": null,
    "postcode": "5350",
    "city": "Стайновци",
    "county": "Габрово",
    "country": "България",
    "country_code": "bg"
  },
  {
    "naseleno_mqsto": "с. Томчевци",
    "amount": "2",
    "lat": "42.90644",
    "lon": "25.5159",
    "formatted": "5350 Томчевци, България",
    "district": null,
    "name": "Томчевци",
    "suburb": null,
    "postcode": "5350",
    "city": "Томчевци",
    "county": "Габрово",
    "country": "България",
    "country_code": "bg"
  },
  {
    "naseleno_mqsto": "с. Самотино",
    "amount": "2",
    "lat": "42.9397365",
    "lon": "27.8622964",
    "formatted": "Самотино, Варна, България",
    "district": null,
    "name": null,
    "suburb": null,
    "postcode": null,
    "city": "Самотино",
    "county": "Варна",
    "country": "България",
    "country_code": "bg"
  },
  {
    "naseleno_mqsto": "с. Докатичево",
    "amount": "2",
    "lat": "41.8836171",
    "lon": "23.0566251",
    "formatted": "2734 Докатичево, България",
    "district": null,
    "name": "Докатичево",
    "suburb": null,
    "postcode": "2734",
    "city": "Докатичево",
    "county": "Благоевград",
    "country": "България",
    "country_code": "bg"
  },
  {
    "naseleno_mqsto": "с. Сухострел",
    "amount": "2",
    "lat": "41.8401909",
    "lon": "22.9595393",
    "formatted": "2736 Сухострел, България",
    "district": null,
    "name": "Сухострел",
    "suburb": null,
    "postcode": "2736",
    "city": "Сухострел",
    "county": "Благоевград",
    "country": "България",
    "country_code": "bg"
  },
  {
    "naseleno_mqsto": "с. Сажденик",
    "amount": "2",
    "lat": "42.1372463",
    "lon": "22.5726223",
    "formatted": "Сажденик, Кюстендил, България",
    "district": null,
    "name": "Сажденик",
    "suburb": null,
    "postcode": null,
    "city": "Кюстендил",
    "county": "Кюстендил",
    "country": "България",
    "country_code": "bg"
  },
  {
    "naseleno_mqsto": "с. Црешново",
    "amount": "2",
    "lat": "42.32348",
    "lon": "22.44573",
    "formatted": "Црешново, Кюстендил, България",
    "district": null,
    "name": "Црешново",
    "suburb": null,
    "postcode": null,
    "city": "Кюстендил",
    "county": "Кюстендил",
    "country": "България",
    "country_code": "bg"
  },
  {
    "naseleno_mqsto": "с. Горно Кобиле",
    "amount": "2",
    "lat": "42.5655927",
    "lon": "22.5205837",
    "formatted": "Горно Кобиле, Кюстендил, България",
    "district": null,
    "name": "Горно Кобиле",
    "suburb": null,
    "postcode": null,
    "city": "Горно Кобиле",
    "county": "Кюстендил",
    "country": "България",
    "country_code": "bg"
  },
  {
    "naseleno_mqsto": "с. Липинци",
    "amount": "2",
    "lat": "43.0127484",
    "lon": "22.8679349",
    "formatted": "Липинци, Софийска, България",
    "district": null,
    "name": "Липинци",
    "suburb": null,
    "postcode": null,
    "city": "Липинци",
    "county": "Софийска",
    "country": "България",
    "country_code": "bg"
  },
  {
    "naseleno_mqsto": "с. Богдановци",
    "amount": "2",
    "lat": "42.5479582",
    "lon": "23.74742",
    "formatted": "2060 Богдановци, България",
    "district": null,
    "name": "Богдановци",
    "suburb": null,
    "postcode": "2060",
    "city": "Богдановци",
    "county": "Софийска",
    "country": "България",
    "country_code": "bg"
  },
  {
    "naseleno_mqsto": "с. Джамузовци",
    "amount": "2",
    "lat": "42.53385",
    "lon": "23.80289",
    "formatted": "Джамузовци, Софийска, България",
    "district": null,
    "name": "Джамузовци",
    "suburb": null,
    "postcode": null,
    "city": "Джамузовци",
    "county": "Софийска",
    "country": "България",
    "country_code": "bg"
  },
  {
    "naseleno_mqsto": "с. Яребковица",
    "amount": "2",
    "lat": "42.38467",
    "lon": "23.23516",
    "formatted": "Яребковица, Софийска, България",
    "district": null,
    "name": "Яребковица",
    "suburb": null,
    "postcode": null,
    "city": "Яребковица",
    "county": "Софийска",
    "country": "България",
    "country_code": "bg"
  },
  {
    "naseleno_mqsto": "с. Аврамово",
    "amount": "2",
    "lat": "41.6963536",
    "lon": "25.1691986",
    "formatted": "Аврамово, Кърджали, България",
    "district": null,
    "name": "Аврамово",
    "suburb": null,
    "postcode": null,
    "city": "Аврамово",
    "county": "Кърджали",
    "country": "България",
    "country_code": "bg"
  },
  {
    "naseleno_mqsto": "с. Царино",
    "amount": "2",
    "lat": "41.3287505",
    "lon": "25.4349356",
    "formatted": "Царино, Кърджали, България",
    "district": null,
    "name": "Царино",
    "suburb": null,
    "postcode": null,
    "city": "Царино",
    "county": "Кърджали",
    "country": "България",
    "country_code": "bg"
  },
  {
    "naseleno_mqsto": "с. Сладкодум",
    "amount": "2",
    "lat": "41.58001",
    "lon": "25.71824",
    "formatted": "Сладкодум, Кърджали, България",
    "district": null,
    "name": "Сладкодум",
    "suburb": null,
    "postcode": null,
    "city": "Сладкодум",
    "county": "Кърджали",
    "country": "България",
    "country_code": "bg"
  },
  {
    "naseleno_mqsto": "с. Яребица",
    "amount": "2",
    "lat": "43.8462784",
    "lon": "26.99238557394868",
    "formatted": "Яребица, Дулово, България",
    "district": "Яребица",
    "name": null,
    "suburb": null,
    "postcode": null,
    "city": "Дулово",
    "county": "Силистра",
    "country": "България",
    "country_code": "bg"
  },
  {
    "naseleno_mqsto": "с. Тешел",
    "amount": "2",
    "lat": "41.6722953",
    "lon": "24.3512469",
    "formatted": "Тешел, Смолян, България",
    "district": null,
    "name": "Тешел",
    "suburb": null,
    "postcode": null,
    "city": "Тешел",
    "county": "Смолян",
    "country": "България",
    "country_code": "bg"
  },
  {
    "naseleno_mqsto": "с. Рустан",
    "amount": "2",
    "lat": "41.52886",
    "lon": "24.87165",
    "formatted": "Рустан, Смолян, България",
    "district": null,
    "name": "Рустан",
    "suburb": null,
    "postcode": null,
    "city": "Рустан",
    "county": "Смолян",
    "country": "България",
    "country_code": "bg"
  },
  {
    "naseleno_mqsto": "с. Димово",
    "amount": "2",
    "lat": "43.7399243",
    "lon": "22.7263193",
    "formatted": "3940 Димово, България",
    "district": null,
    "name": null,
    "suburb": null,
    "postcode": "3940",
    "city": "Димово",
    "county": "Видин",
    "country": "България",
    "country_code": "bg"
  },
  {
    "naseleno_mqsto": "с. Сърнино",
    "amount": "2",
    "lat": "43.6675001",
    "lon": "28.28986",
    "formatted": "Сърнино, Добрич, България",
    "district": null,
    "name": null,
    "suburb": null,
    "postcode": null,
    "city": "Сърнино",
    "county": "Добрич",
    "country": "България",
    "country_code": "bg"
  },
  {
    "naseleno_mqsto": "с. Чучур",
    "amount": "2",
    "lat": "41.5445639",
    "lon": "24.8189125",
    "formatted": "4726 Чучур, България",
    "district": null,
    "name": "Чучур",
    "suburb": null,
    "postcode": "4726",
    "city": "Чучур",
    "county": "Смолян",
    "country": "България",
    "country_code": "bg"
  },
  {
    "naseleno_mqsto": "с. Горно Луково",
    "amount": "2",
    "lat": "41.3634201",
    "lon": "26.08637",
    "formatted": "Горно Луково, Хасково, България",
    "district": null,
    "name": "Горно Луково",
    "suburb": null,
    "postcode": null,
    "city": "Горно Луково",
    "county": "Хасково",
    "country": "България",
    "country_code": "bg"
  },
  {
    "naseleno_mqsto": "с. Костилково",
    "amount": "2",
    "lat": "41.42028",
    "lon": "26.04972",
    "formatted": "Костилково, Хасково, България",
    "district": null,
    "name": "Костилково",
    "suburb": null,
    "postcode": null,
    "city": "Костилково",
    "county": "Хасково",
    "country": "България",
    "country_code": "bg"
  },
  {
    "naseleno_mqsto": "с. Голяма долина",
    "amount": "2",
    "lat": "41.69597",
    "lon": "25.86313",
    "formatted": "Голяма долина, Хасково, България",
    "district": null,
    "name": "Голяма долина",
    "suburb": null,
    "postcode": null,
    "city": "Голяма долина",
    "county": "Хасково",
    "country": "България",
    "country_code": "bg"
  },
  {
    "naseleno_mqsto": "с. Дълго поле",
    "amount": "3",
    "lat": "43.69548",
    "lon": "22.77816",
    "formatted": "3940 Дълго поле, България",
    "district": null,
    "name": "Дълго поле",
    "suburb": null,
    "postcode": "3940",
    "city": "Дълго поле",
    "county": "Видин",
    "country": "България",
    "country_code": "bg"
  },
  {
    "naseleno_mqsto": "с. Марково равнище",
    "amount": "3",
    "lat": "43.0370576",
    "lon": "23.9389747",
    "formatted": "Марково равнище, Враца, България",
    "district": null,
    "name": "Марково равнище",
    "suburb": null,
    "postcode": null,
    "city": "Марково равнище",
    "county": "Враца",
    "country": "България",
    "country_code": "bg"
  },
  {
    "naseleno_mqsto": "с. Дунавци",
    "amount": "3",
    "lat": "43.9139817",
    "lon": "22.8153639",
    "formatted": "Дунавци, Видин, България",
    "district": null,
    "name": "Дунавци",
    "suburb": null,
    "postcode": null,
    "city": "Видин",
    "county": "Видин",
    "country": "България",
    "country_code": "bg"
  },
  {
    "naseleno_mqsto": "с. Куцаровци",
    "amount": "3",
    "lat": "42.9428539",
    "lon": "25.7233244",
    "formatted": "5093 Куцаровци, България",
    "district": null,
    "name": "Куцаровци",
    "suburb": null,
    "postcode": "5093",
    "city": "Куцаровци",
    "county": "Велико Търново",
    "country": "България",
    "country_code": "bg"
  },
  {
    "naseleno_mqsto": "с. Мишеморков хан",
    "amount": "3",
    "lat": "42.80876",
    "lon": "25.63799",
    "formatted": "Мишеморков хан, Велико Търново, България",
    "district": null,
    "name": "Мишеморков хан",
    "suburb": null,
    "postcode": null,
    "city": "Мишеморков хан",
    "county": "Велико Търново",
    "country": "България",
    "country_code": "bg"
  },
  {
    "naseleno_mqsto": "с. Зеленик",
    "amount": "3",
    "lat": "42.84644",
    "lon": "26.00054",
    "formatted": "Зеленик, Велико Търново, България",
    "district": null,
    "name": "Зеленик",
    "suburb": null,
    "postcode": null,
    "city": "Зеленик",
    "county": "Велико Търново",
    "country": "България",
    "country_code": "bg"
  },
  {
    "naseleno_mqsto": "с. Николчовци",
    "amount": "3",
    "lat": "42.8834427",
    "lon": "25.2325223",
    "formatted": "5347 Николчовци, България",
    "district": null,
    "name": "Николчовци",
    "suburb": null,
    "postcode": "5347",
    "city": "Николчовци",
    "county": "Габрово",
    "country": "България",
    "country_code": "bg"
  },
  {
    "naseleno_mqsto": "с. Ветрово",
    "amount": "3",
    "lat": "42.9290637",
    "lon": "25.2941777",
    "formatted": "5345 Ветрово, България",
    "district": null,
    "name": "Ветрово",
    "suburb": null,
    "postcode": "5345",
    "city": "Ветрово",
    "county": "Габрово",
    "country": "България",
    "country_code": "bg"
  },
  {
    "naseleno_mqsto": "с. Калчовци",
    "amount": "3",
    "lat": "42.8867278",
    "lon": "25.3938533",
    "formatted": "5340 Калчовци, България",
    "district": null,
    "name": "Калчовци",
    "suburb": null,
    "postcode": "5340",
    "city": "Калчовци",
    "county": "Габрово",
    "country": "България",
    "country_code": "bg"
  },
  {
    "naseleno_mqsto": "с. Доча",
    "amount": "3",
    "lat": "42.94249",
    "lon": "25.45195",
    "formatted": "5380 Доча, България",
    "district": null,
    "name": "Доча",
    "suburb": null,
    "postcode": "5380",
    "city": "Доча",
    "county": "Габрово",
    "country": "България",
    "country_code": "bg"
  },
  {
    "naseleno_mqsto": "с. Петковци",
    "amount": "3",
    "lat": "42.94549",
    "lon": "25.98754",
    "formatted": "Петковци, Велико Търново, България",
    "district": null,
    "name": "Петковци",
    "suburb": null,
    "postcode": null,
    "city": "Петковци",
    "county": "Велико Търново",
    "country": "България",
    "country_code": "bg"
  },
  {
    "naseleno_mqsto": "с. Горни Дамяновци",
    "amount": "3",
    "lat": "42.8148412",
    "lon": "25.5481308",
    "formatted": "Горни Дамяновци, Габрово, България",
    "district": null,
    "name": "Горни Дамяновци",
    "suburb": null,
    "postcode": null,
    "city": "Горни Дамяновци",
    "county": "Габрово",
    "country": "България",
    "country_code": "bg"
  },
  {
    "naseleno_mqsto": "с. Койчовци",
    "amount": "3",
    "lat": "42.86249",
    "lon": "25.49208",
    "formatted": "5350 Койчовци, България",
    "district": null,
    "name": "Койчовци",
    "suburb": null,
    "postcode": "5350",
    "city": "Койчовци",
    "county": "Габрово",
    "country": "България",
    "country_code": "bg"
  },
  {
    "naseleno_mqsto": "с. Маруцековци",
    "amount": "3",
    "lat": "42.8130652",
    "lon": "25.4183173",
    "formatted": "Маруцековци, Габрово, България",
    "district": null,
    "name": "Маруцековци",
    "suburb": null,
    "postcode": null,
    "city": "Маруцековци",
    "county": "Габрово",
    "country": "България",
    "country_code": "bg"
  },
  {
    "naseleno_mqsto": "с. Ножерите",
    "amount": "3",
    "lat": "42.8119826",
    "lon": "25.46027",
    "formatted": "5360 Ножерите, България",
    "district": null,
    "name": "Ножерите",
    "suburb": null,
    "postcode": "5360",
    "city": "Ножерите",
    "county": "Габрово",
    "country": "България",
    "country_code": "bg"
  },
  {
    "naseleno_mqsto": "с. Руевци",
    "amount": "3",
    "lat": "42.8112619",
    "lon": "25.5385607",
    "formatted": "Руевци, Габрово, България",
    "district": null,
    "name": "Руевци",
    "suburb": null,
    "postcode": null,
    "city": "Руевци",
    "county": "Габрово",
    "country": "България",
    "country_code": "bg"
  },
  {
    "naseleno_mqsto": "с. Скорците",
    "amount": "3",
    "lat": "42.89691",
    "lon": "25.45955",
    "formatted": "5350 Скорците, България",
    "district": null,
    "name": "Скорците",
    "suburb": null,
    "postcode": "5350",
    "city": "Скорците",
    "county": "Габрово",
    "country": "България",
    "country_code": "bg"
  },
  {
    "naseleno_mqsto": "с. Иречек",
    "amount": "3",
    "lat": "43.5236",
    "lon": "28.3638",
    "formatted": "Иречек, Добрич, България",
    "district": null,
    "name": null,
    "suburb": null,
    "postcode": null,
    "city": "Иречек",
    "county": "Добрич",
    "country": "България",
    "country_code": "bg"
  },
  {
    "naseleno_mqsto": "с. Стаевци",
    "amount": "3",
    "lat": "43.68996",
    "lon": "28.4946513",
    "formatted": "Стаевци, Добрич, България",
    "district": null,
    "name": null,
    "suburb": null,
    "postcode": null,
    "city": "Стаевци",
    "county": "Добрич",
    "country": "България",
    "country_code": "bg"
  },
  {
    "naseleno_mqsto": "с. Брестова",
    "amount": "3",
    "lat": "42.6625885",
    "lon": "25.741176",
    "formatted": "Брестова, Димовци, България",
    "district": null,
    "name": "Брестова",
    "suburb": "Брестова",
    "postcode": null,
    "city": "Димовци",
    "county": "Стара Загора",
    "country": "България",
    "country_code": "bg"
  },
  {
    "naseleno_mqsto": "с. Иваново",
    "amount": "3",
    "lat": "43.647628049999994",
    "lon": "25.978741735033303",
    "formatted": "Иваново, Русе, България",
    "district": null,
    "name": null,
    "suburb": null,
    "postcode": null,
    "city": "Иваново",
    "county": "Русе",
    "country": "България",
    "country_code": "bg"
  },
  {
    "naseleno_mqsto": "с. Крънджилица",
    "amount": "3",
    "lat": "41.53974",
    "lon": "23.0578416",
    "formatted": "2875 Крънджилица, България",
    "district": null,
    "name": "Крънджилица",
    "suburb": null,
    "postcode": "2875",
    "city": "Крънджилица",
    "county": "Благоевград",
    "country": "България",
    "country_code": "bg"
  },
  {
    "naseleno_mqsto": "с. Горно Осеново",
    "amount": "3",
    "lat": "41.9926",
    "lon": "23.26434",
    "formatted": "2756 Горно Осеново, България",
    "district": null,
    "name": "Горно Осеново",
    "suburb": null,
    "postcode": "2756",
    "city": "Горно Осеново",
    "county": "Благоевград",
    "country": "България",
    "country_code": "bg"
  },
  {
    "naseleno_mqsto": "с. Велющец",
    "amount": "3",
    "lat": "41.58808",
    "lon": "23.14195",
    "formatted": "2849 Велющец, България",
    "district": null,
    "name": "Велющец",
    "suburb": null,
    "postcode": "2849",
    "city": "Велющец",
    "county": "Благоевград",
    "country": "България",
    "country_code": "bg"
  },
  {
    "naseleno_mqsto": "с. Горна Рибница",
    "amount": "3",
    "lat": "41.64344",
    "lon": "23.03668",
    "formatted": "2836 Горна Рибница, България",
    "district": null,
    "name": "Горна Рибница",
    "suburb": null,
    "postcode": "2836",
    "city": "Горна Рибница",
    "county": "Благоевград",
    "country": "България",
    "country_code": "bg"
  },
  {
    "naseleno_mqsto": "с. Дождевица",
    "amount": "3",
    "lat": "42.32918",
    "lon": "22.56611",
    "formatted": "Дождевица, Кюстендил, България",
    "district": null,
    "name": "Дождевица",
    "suburb": null,
    "postcode": null,
    "city": "Кюстендил",
    "county": "Кюстендил",
    "country": "България",
    "country_code": "bg"
  },
  {
    "naseleno_mqsto": "с. Побит камък",
    "amount": "3",
    "lat": "42.5956597",
    "lon": "22.4555656",
    "formatted": "Побит камък, Кюстендил, България",
    "district": null,
    "name": "Побит камък",
    "suburb": null,
    "postcode": null,
    "city": "Побит камък",
    "county": "Кюстендил",
    "country": "България",
    "country_code": "bg"
  },
  {
    "naseleno_mqsto": "с. Мала Раковица",
    "amount": "3",
    "lat": "42.7321651",
    "lon": "23.0507265",
    "formatted": "Мала Раковица, Софийска, България",
    "district": null,
    "name": null,
    "suburb": null,
    "postcode": null,
    "city": "Мала Раковица",
    "county": "Софийска",
    "country": "България",
    "country_code": "bg"
  },
  {
    "naseleno_mqsto": "с. Банчовци",
    "amount": "3",
    "lat": "42.5216294",
    "lon": "23.6978154",
    "formatted": "2060 Банчовци, България",
    "district": null,
    "name": "Банчовци",
    "suburb": null,
    "postcode": "2060",
    "city": "Банчовци",
    "county": "Софийска",
    "country": "България",
    "country_code": "bg"
  },
  {
    "naseleno_mqsto": "с. Брестака",
    "amount": "3",
    "lat": "42.6059199",
    "lon": "23.9191302",
    "formatted": "2072 Брестака, България",
    "district": null,
    "name": "Брестака",
    "suburb": null,
    "postcode": "2072",
    "city": "Брестака",
    "county": "Софийска",
    "country": "България",
    "country_code": "bg"
  },
  {
    "naseleno_mqsto": "с. Хвърчил",
    "amount": "3",
    "lat": "42.6067519",
    "lon": "23.9295081",
    "formatted": "2072 Хвърчил, България",
    "district": null,
    "name": "Хвърчил",
    "suburb": null,
    "postcode": "2072",
    "city": "Хвърчил",
    "county": "Софийска",
    "country": "България",
    "country_code": "bg"
  },
  {
    "naseleno_mqsto": "с. Дойранци",
    "amount": "3",
    "lat": "41.7146785",
    "lon": "25.1869026",
    "formatted": "Дойранци, Кърджали, България",
    "district": null,
    "name": "Дойранци",
    "suburb": null,
    "postcode": null,
    "city": "Дойранци",
    "county": "Кърджали",
    "country": "България",
    "country_code": "bg"
  },
  {
    "naseleno_mqsto": "с. Кожухарци",
    "amount": "3",
    "lat": "41.5945252",
    "lon": "25.7546487",
    "formatted": "Кожухарци, Кърджали, България",
    "district": null,
    "name": "Кожухарци",
    "suburb": null,
    "postcode": null,
    "city": "Кожухарци",
    "county": "Кърджали",
    "country": "България",
    "country_code": "bg"
  },
  {
    "naseleno_mqsto": "с. Тополчане",
    "amount": "3",
    "lat": "41.62554",
    "lon": "25.31441",
    "formatted": "Тополчане, 6609 Кърджали, България",
    "district": null,
    "name": "Тополчане",
    "suburb": null,
    "postcode": "6609",
    "city": "Кърджали",
    "county": "Кърджали",
    "country": "България",
    "country_code": "bg"
  },
  {
    "naseleno_mqsto": "с. Душка",
    "amount": "3",
    "lat": "41.89132",
    "lon": "25.20043",
    "formatted": "6724 Душка, България",
    "district": null,
    "name": "Душка",
    "suburb": null,
    "postcode": "6724",
    "city": "Душка",
    "county": "Кърджали",
    "country": "България",
    "country_code": "bg"
  },
  {
    "naseleno_mqsto": "с. Сребриново",
    "amount": "3",
    "lat": "42.5405356",
    "lon": "24.0053894",
    "formatted": "Сребриново, Пазарджик, България",
    "district": null,
    "name": "Сребриново",
    "suburb": null,
    "postcode": null,
    "city": "Сребриново",
    "county": "Пазарджик",
    "country": "България",
    "country_code": "bg"
  },
  {
    "naseleno_mqsto": "с. Стайчин дол",
    "amount": "3",
    "lat": "41.5656025",
    "lon": "24.9904799",
    "formatted": "Стайчин дол, Смолян, България",
    "district": null,
    "name": "Стайчин дол",
    "suburb": null,
    "postcode": null,
    "city": "Стайчин дол",
    "county": "Смолян",
    "country": "България",
    "country_code": "bg"
  },
  {
    "naseleno_mqsto": "с. Боево",
    "amount": "3",
    "lat": "41.52045",
    "lon": "24.83959",
    "formatted": "4726 Боево, България",
    "district": null,
    "name": "Боево",
    "suburb": null,
    "postcode": "4726",
    "city": "Боево",
    "county": "Смолян",
    "country": "България",
    "country_code": "bg"
  },
  {
    "naseleno_mqsto": "с. Добрева череша",
    "amount": "3",
    "lat": "41.5122278",
    "lon": "24.8248957",
    "formatted": "Добрева череша, Смолян, България",
    "district": null,
    "name": "Добрева череша",
    "suburb": null,
    "postcode": null,
    "city": "Добрева череша",
    "county": "Смолян",
    "country": "България",
    "country_code": "bg"
  },
  {
    "naseleno_mqsto": "с. Кукувица",
    "amount": "3",
    "lat": "41.7012574",
    "lon": "24.6030992",
    "formatted": "Бистрица, Кукувица, България",
    "district": null,
    "name": "Бистрица",
    "suburb": "Бистрица",
    "postcode": null,
    "city": "Кукувица",
    "county": "Смолян",
    "country": "България",
    "country_code": "bg"
  },
  {
    "naseleno_mqsto": "с. Надарци",
    "amount": "3",
    "lat": "41.5270376",
    "lon": "24.6247172",
    "formatted": "4765 Надарци, България",
    "district": null,
    "name": "Надарци",
    "suburb": null,
    "postcode": "4765",
    "city": "Надарци",
    "county": "Смолян",
    "country": "България",
    "country_code": "bg"
  },
  {
    "naseleno_mqsto": "с. Потока",
    "amount": "3",
    "lat": "41.47109",
    "lon": "24.60635",
    "formatted": "4761 Потока, България",
    "district": null,
    "name": "Потока",
    "suburb": null,
    "postcode": "4761",
    "city": "Потока",
    "county": "Смолян",
    "country": "България",
    "country_code": "bg"
  },
  {
    "naseleno_mqsto": "с. Черешките",
    "amount": "3",
    "lat": "41.5032738",
    "lon": "24.5910205",
    "formatted": "4765 Черешките, България",
    "district": null,
    "name": "Черешките",
    "suburb": null,
    "postcode": "4765",
    "city": "Черешките",
    "county": "Смолян",
    "country": "България",
    "country_code": "bg"
  },
  {
    "naseleno_mqsto": "с. Габерово",
    "amount": "3",
    "lat": "41.6255",
    "lon": "25.90175",
    "formatted": "6482 Габерово, България",
    "district": null,
    "name": "Габерово",
    "suburb": null,
    "postcode": "6482",
    "city": "Габерово",
    "county": "Хасково",
    "country": "България",
    "country_code": "bg"
  },
  {
    "naseleno_mqsto": "с. Варник",
    "amount": "3",
    "lat": "41.8674601",
    "lon": "26.5129499",
    "formatted": "Варник, Хасково, България",
    "district": null,
    "name": null,
    "suburb": null,
    "postcode": null,
    "city": "Варник",
    "county": "Хасково",
    "country": "България",
    "country_code": "bg"
  },
  {
    "naseleno_mqsto": "с. Граничак",
    "amount": "4",
    "lat": "43.64188",
    "lon": "22.58499",
    "formatted": "Граничак, Видин, България",
    "district": null,
    "name": "Граничак",
    "suburb": null,
    "postcode": null,
    "city": "Граничак",
    "county": "Видин",
    "country": "България",
    "country_code": "bg"
  },
  {
    "naseleno_mqsto": "с. Рашовица",
    "amount": "4",
    "lat": "43.2669356",
    "lon": "23.2356177",
    "formatted": "Рашовица, Монтана, България",
    "district": null,
    "name": "Рашовица",
    "suburb": null,
    "postcode": null,
    "city": "Рашовица",
    "county": "Монтана",
    "country": "България",
    "country_code": "bg"
  },
  {
    "naseleno_mqsto": "с. Върлинка",
    "amount": "4",
    "lat": "42.9630878",
    "lon": "25.6367976",
    "formatted": "5055 Върлинка, България",
    "district": null,
    "name": "Върлинка",
    "suburb": null,
    "postcode": "5055",
    "city": "Върлинка",
    "county": "Велико Търново",
    "country": "България",
    "country_code": "bg"
  },
  {
    "naseleno_mqsto": "с. Поповци",
    "amount": "4",
    "lat": "42.9082322",
    "lon": "25.2699966",
    "formatted": "Поповци, Гледаци, България",
    "district": null,
    "name": "Поповци",
    "suburb": "Поповци",
    "postcode": "5345",
    "city": "Гледаци",
    "county": "Габрово",
    "country": "България",
    "country_code": "bg"
  },
  {
    "naseleno_mqsto": "с. Продановци",
    "amount": "4",
    "lat": "42.34515",
    "lon": "23.52042",
    "formatted": "2017 Продановци, България",
    "district": null,
    "name": "Продановци",
    "suburb": null,
    "postcode": "2017",
    "city": "Продановци",
    "county": "Софийска",
    "country": "България",
    "country_code": "bg"
  },
  {
    "naseleno_mqsto": "с. Терзиите",
    "amount": "4",
    "lat": "42.8431584",
    "lon": "25.6756176",
    "formatted": "5045 Терзиите, България",
    "district": null,
    "name": "Терзиите",
    "suburb": null,
    "postcode": "5045",
    "city": "Терзиите",
    "county": "Велико Търново",
    "country": "България",
    "country_code": "bg"
  },
  {
    "naseleno_mqsto": "с. Горни Танчевци",
    "amount": "4",
    "lat": "42.83816",
    "lon": "25.9193",
    "formatted": "Горни Танчевци, Велико Търново, България",
    "district": null,
    "name": "Горни Танчевци",
    "suburb": null,
    "postcode": null,
    "city": "Горни Танчевци",
    "county": "Велико Търново",
    "country": "България",
    "country_code": "bg"
  },
  {
    "naseleno_mqsto": "с. Добревци",
    "amount": "4",
    "lat": "42.8394556",
    "lon": "25.8139802",
    "formatted": "Добревци, Велико Търново, България",
    "district": null,
    "name": "Добревци",
    "suburb": null,
    "postcode": null,
    "city": "Добревци",
    "county": "Велико Търново",
    "country": "България",
    "country_code": "bg"
  },
  {
    "naseleno_mqsto": "с. Крилювци",
    "amount": "4",
    "lat": "42.90682",
    "lon": "25.72056",
    "formatted": "5093 Крилювци, България",
    "district": null,
    "name": "Крилювци",
    "suburb": null,
    "postcode": "5093",
    "city": "Крилювци",
    "county": "Велико Търново",
    "country": "България",
    "country_code": "bg"
  },
  {
    "naseleno_mqsto": "с. Стойчевци",
    "amount": "4",
    "lat": "42.9253634",
    "lon": "25.8303112",
    "formatted": "Стойчевци, Елена, България",
    "district": null,
    "name": "Стойчевци",
    "suburb": "Стойчевци",
    "postcode": null,
    "city": "Елена",
    "county": "Велико Търново",
    "country": "България",
    "country_code": "bg"
  },
  {
    "naseleno_mqsto": "с. Шубеци",
    "amount": "4",
    "lat": "42.87992",
    "lon": "25.87059",
    "formatted": "5017 Шубеци, България",
    "district": null,
    "name": "Шубеци",
    "suburb": null,
    "postcode": "5017",
    "city": "Шубеци",
    "county": "Велико Търново",
    "country": "България",
    "country_code": "bg"
  },
  {
    "naseleno_mqsto": "с. Овощарци",
    "amount": "4",
    "lat": "42.8850455",
    "lon": "25.3858843",
    "formatted": "5340 Овощарци, България",
    "district": null,
    "name": "Овощарци",
    "suburb": null,
    "postcode": "5340",
    "city": "Овощарци",
    "county": "Габрово",
    "country": "България",
    "country_code": "bg"
  },
  {
    "naseleno_mqsto": "с. Корията",
    "amount": "4",
    "lat": "42.91296",
    "lon": "25.0322",
    "formatted": "5471 Корията, България",
    "district": null,
    "name": "Корията",
    "suburb": null,
    "postcode": "5471",
    "city": "Корията",
    "county": "Габрово",
    "country": "България",
    "country_code": "bg"
  },
  {
    "naseleno_mqsto": "с. Веленци",
    "amount": "4",
    "lat": "42.8716905",
    "lon": "25.4629202",
    "formatted": "5350 Веленци, България",
    "district": null,
    "name": "Веленци",
    "suburb": null,
    "postcode": "5350",
    "city": "Веленци",
    "county": "Габрово",
    "country": "България",
    "country_code": "bg"
  },
  {
    "naseleno_mqsto": "с. Малки Станчовци",
    "amount": "4",
    "lat": "42.90373",
    "lon": "25.53851",
    "formatted": "Малки Станчовци, Габрово, България",
    "district": null,
    "name": "Малки Станчовци",
    "suburb": null,
    "postcode": null,
    "city": "Малки Станчовци",
    "county": "Габрово",
    "country": "България",
    "country_code": "bg"
  },
  {
    "naseleno_mqsto": "с. Мръзеци",
    "amount": "4",
    "lat": "42.79203",
    "lon": "25.55156",
    "formatted": "Мръзеци, Габрово, България",
    "district": null,
    "name": "Мръзеци",
    "suburb": null,
    "postcode": null,
    "city": "Мръзеци",
    "county": "Габрово",
    "country": "България",
    "country_code": "bg"
  },
  {
    "naseleno_mqsto": "с. Свирци",
    "amount": "4",
    "lat": "42.8224555",
    "lon": "25.5672559",
    "formatted": "Свирци, Габрово, България",
    "district": null,
    "name": "Свирци",
    "suburb": null,
    "postcode": null,
    "city": "Свирци",
    "county": "Габрово",
    "country": "България",
    "country_code": "bg"
  },
  {
    "naseleno_mqsto": "с. Ястребна",
    "amount": "4",
    "lat": "43.9704",
    "lon": "27.07252",
    "formatted": "Ястребна, Силистра, България",
    "district": null,
    "name": null,
    "suburb": null,
    "postcode": null,
    "city": "Ястребна",
    "county": "Силистра",
    "country": "България",
    "country_code": "bg"
  },
  {
    "naseleno_mqsto": "с. Огражден",
    "amount": "4",
    "lat": "43.7856",
    "lon": "28.09889",
    "formatted": "Огражден, Добрич, България",
    "district": null,
    "name": null,
    "suburb": null,
    "postcode": null,
    "city": "Огражден",
    "county": "Добрич",
    "country": "България",
    "country_code": "bg"
  },
  {
    "naseleno_mqsto": "с. Войниково",
    "amount": "4",
    "lat": "43.70333",
    "lon": "27.36615",
    "formatted": "Войниково, Добрич, България",
    "district": null,
    "name": null,
    "suburb": null,
    "postcode": null,
    "city": "Войниково",
    "county": "Добрич",
    "country": "България",
    "country_code": "bg"
  },
  {
    "naseleno_mqsto": "с. Присойна",
    "amount": "4",
    "lat": "43.17118",
    "lon": "26.24893",
    "formatted": "Присойна, Търговище, България",
    "district": null,
    "name": null,
    "suburb": null,
    "postcode": null,
    "city": "Присойна",
    "county": "Търговище",
    "country": "България",
    "country_code": "bg"
  },
  {
    "naseleno_mqsto": "с. Горчево",
    "amount": "4",
    "lat": "41.4513081",
    "lon": "23.0280699",
    "formatted": "2882 Горчево, България",
    "district": null,
    "name": "Горчево",
    "suburb": null,
    "postcode": "2882",
    "city": "Горчево",
    "county": "Благоевград",
    "country": "България",
    "country_code": "bg"
  },
  {
    "naseleno_mqsto": "с. Тонско дабе",
    "amount": "4",
    "lat": "41.5015429",
    "lon": "23.1311989",
    "formatted": "2875 Тонско дабе, България",
    "district": null,
    "name": "Тонско дабе",
    "suburb": null,
    "postcode": "2875",
    "city": "Тонско дабе",
    "county": "Благоевград",
    "country": "България",
    "country_code": "bg"
  },
  {
    "naseleno_mqsto": "с. Долени",
    "amount": "4",
    "lat": "41.5719235",
    "lon": "23.4126595",
    "formatted": "2811 Долени, България",
    "district": null,
    "name": "Долени",
    "suburb": null,
    "postcode": "2811",
    "city": "Долени",
    "county": "Благоевград",
    "country": "България",
    "country_code": "bg"
  },
  {
    "naseleno_mqsto": "с. Лехово",
    "amount": "4",
    "lat": "41.4102738",
    "lon": "23.4869842",
    "formatted": "2816 Лехово, България",
    "district": null,
    "name": "Лехово",
    "suburb": null,
    "postcode": "2816",
    "city": "Лехово",
    "county": "Благоевград",
    "country": "България",
    "country_code": "bg"
  },
  {
    "naseleno_mqsto": "с. Малки Цалим",
    "amount": "4",
    "lat": "41.60293",
    "lon": "23.3455399",
    "formatted": "2800 Малки Цалим, България",
    "district": null,
    "name": "Малки Цалим",
    "suburb": null,
    "postcode": "2800",
    "city": "Малки Цалим",
    "county": "Благоевград",
    "country": "България",
    "country_code": "bg"
  },
  {
    "naseleno_mqsto": "с. Лисец",
    "amount": "4",
    "lat": "43.18358",
    "lon": "24.65617",
    "formatted": "Лисец, Ловеч, България",
    "district": null,
    "name": "Лисец",
    "suburb": null,
    "postcode": null,
    "city": "Лисец",
    "county": "Ловеч",
    "country": "България",
    "country_code": "bg"
  },
  {
    "naseleno_mqsto": "с. Длъхчево-Сабляр",
    "amount": "4",
    "lat": "42.1768174",
    "lon": "22.8052503",
    "formatted": "Длъхчево-Сабляр, Кюстендил, България",
    "district": null,
    "name": "Длъхчево-Сабляр",
    "suburb": null,
    "postcode": null,
    "city": "Длъхчево-Сабляр",
    "county": "Кюстендил",
    "country": "България",
    "country_code": "bg"
  },
  {
    "naseleno_mqsto": "с. Голак",
    "amount": "4",
    "lat": "42.29657",
    "lon": "23.96644",
    "formatted": "Голак, Софийска, България",
    "district": null,
    "name": "Голак",
    "suburb": null,
    "postcode": null,
    "city": "Голак",
    "county": "Софийска",
    "country": "България",
    "country_code": "bg"
  },
  {
    "naseleno_mqsto": "с. Манастирище",
    "amount": "4",
    "lat": "43.57188",
    "lon": "23.63964",
    "formatted": "Манастирище, Враца, България",
    "district": null,
    "name": "Манастирище",
    "suburb": null,
    "postcode": null,
    "city": "Манастирище",
    "county": "Враца",
    "country": "България",
    "country_code": "bg"
  },
  {
    "naseleno_mqsto": "с. Повалиръж",
    "amount": "4",
    "lat": "42.8361124",
    "lon": "22.8939382",
    "formatted": "Повалиръж, Софийска, България",
    "district": null,
    "name": "Повалиръж",
    "suburb": null,
    "postcode": null,
    "city": "Повалиръж",
    "county": "Софийска",
    "country": "България",
    "country_code": "bg"
  },
  {
    "naseleno_mqsto": "с. Старо място",
    "amount": "4",
    "lat": "41.6641278",
    "lon": "25.2975435",
    "formatted": "Старо място, Кърджали, България",
    "district": null,
    "name": "Старо място",
    "suburb": null,
    "postcode": null,
    "city": "Кърджали",
    "county": "Кърджали",
    "country": "България",
    "country_code": "bg"
  },
  {
    "naseleno_mqsto": "с. Куцово",
    "amount": "4",
    "lat": "41.7638406",
    "lon": "25.2196559",
    "formatted": "Куцово, Кърджали, България",
    "district": null,
    "name": "Куцово",
    "suburb": null,
    "postcode": null,
    "city": "Куцово",
    "county": "Кърджали",
    "country": "България",
    "country_code": "bg"
  },
  {
    "naseleno_mqsto": "с. Долно вършило",
    "amount": "4",
    "lat": "42.329774",
    "lon": "23.987133",
    "formatted": "Долно вършило, Пазарджик, България",
    "district": null,
    "name": "Долно вършило",
    "suburb": null,
    "postcode": null,
    "city": "Долно вършило",
    "county": "Пазарджик",
    "country": "България",
    "country_code": "bg"
  },
  {
    "naseleno_mqsto": "с. Крушев дол",
    "amount": "4",
    "lat": "41.444863",
    "lon": "24.9364597",
    "formatted": "Крушев дол, Смолян, България",
    "district": null,
    "name": "Крушев дол",
    "suburb": null,
    "postcode": null,
    "city": "Крушев дол",
    "county": "Смолян",
    "country": "България",
    "country_code": "bg"
  },
  {
    "naseleno_mqsto": "с. Бреза",
    "amount": "4",
    "lat": "41.4501902",
    "lon": "24.870209",
    "formatted": "Бреза, Смолян, България",
    "district": null,
    "name": "Бреза",
    "suburb": null,
    "postcode": null,
    "city": "Бреза",
    "county": "Смолян",
    "country": "България",
    "country_code": "bg"
  },
  {
    "naseleno_mqsto": "с. Попрелка",
    "amount": "4",
    "lat": "41.536296",
    "lon": "24.637498",
    "formatted": "4761 Попрелка, България",
    "district": null,
    "name": "Попрелка",
    "suburb": null,
    "postcode": "4761",
    "city": "Попрелка",
    "county": "Смолян",
    "country": "България",
    "country_code": "bg"
  },
  {
    "naseleno_mqsto": "с. Брусино",
    "amount": "4",
    "lat": "41.51139",
    "lon": "25.93737",
    "formatted": "Брусино, Хасково, България",
    "district": null,
    "name": "Брусино",
    "suburb": null,
    "postcode": null,
    "city": "Брусино",
    "county": "Хасково",
    "country": "България",
    "country_code": "bg"
  },
  {
    "naseleno_mqsto": "с. Пашкул",
    "amount": "4",
    "lat": "41.52336",
    "lon": "25.88802",
    "formatted": "Пашкул, Хасково, България",
    "district": null,
    "name": "Пашкул",
    "suburb": null,
    "postcode": null,
    "city": "Пашкул",
    "county": "Хасково",
    "country": "България",
    "country_code": "bg"
  },
  {
    "naseleno_mqsto": "с. Соколенци",
    "amount": "4",
    "lat": "41.48156",
    "lon": "25.91887",
    "formatted": "Соколенци, Хасково, България",
    "district": null,
    "name": "Соколенци",
    "suburb": null,
    "postcode": null,
    "city": "Соколенци",
    "county": "Хасково",
    "country": "България",
    "country_code": "bg"
  },
  {
    "naseleno_mqsto": "с. Лисово",
    "amount": "4",
    "lat": "41.9420244",
    "lon": "26.3163986",
    "formatted": "Лисово, Хасково, България",
    "district": null,
    "name": null,
    "suburb": null,
    "postcode": null,
    "city": "Лисово",
    "county": "Хасково",
    "country": "България",
    "country_code": "bg"
  },
  {
    "naseleno_mqsto": "с. Богомил",
    "amount": "4",
    "lat": "41.9884262",
    "lon": "26.0252058",
    "formatted": "Богомил, Хасково, България",
    "district": null,
    "name": "Богомил",
    "suburb": null,
    "postcode": null,
    "city": "Богомил",
    "county": "Хасково",
    "country": "България",
    "country_code": "bg"
  },
  {
    "naseleno_mqsto": "с. Градсковски колиби",
    "amount": "5",
    "lat": "44.00447",
    "lon": "22.44767",
    "formatted": "Градсковски колиби, Видин, България",
    "district": null,
    "name": "Градсковски колиби",
    "suburb": null,
    "postcode": null,
    "city": "Градсковски колиби",
    "county": "Видин",
    "country": "България",
    "country_code": "bg"
  },
  {
    "naseleno_mqsto": "с. Бояново",
    "amount": "5",
    "lat": "42.2587971",
    "lon": "26.6259226",
    "formatted": "8730 Бояново, България",
    "district": null,
    "name": "Бояново",
    "suburb": null,
    "postcode": "8730",
    "city": "Бояново",
    "county": "Ямбол",
    "country": "България",
    "country_code": "bg"
  },
  {
    "naseleno_mqsto": "с. Веселина",
    "amount": "5",
    "lat": "43.45734",
    "lon": "26.68513",
    "formatted": "Веселина, Разград, България",
    "district": null,
    "name": null,
    "suburb": null,
    "postcode": null,
    "city": "Веселина",
    "county": "Разград",
    "country": "България",
    "country_code": "bg"
  },
  {
    "naseleno_mqsto": "с. Петковци",
    "amount": "5",
    "lat": "42.94549",
    "lon": "25.98754",
    "formatted": "Петковци, Велико Търново, България",
    "district": null,
    "name": "Петковци",
    "suburb": null,
    "postcode": null,
    "city": "Петковци",
    "county": "Велико Търново",
    "country": "България",
    "country_code": "bg"
  },
  {
    "naseleno_mqsto": "с. Стояновци",
    "amount": "5",
    "lat": "42.8959012",
    "lon": "25.372475",
    "formatted": "5342 Стояновци, България",
    "district": null,
    "name": "Стояновци",
    "suburb": null,
    "postcode": "5342",
    "city": "Стояновци",
    "county": "Габрово",
    "country": "България",
    "country_code": "bg"
  },
  {
    "naseleno_mqsto": "с. Джумриите",
    "amount": "5",
    "lat": "42.9239533",
    "lon": "25.3368542",
    "formatted": "5302 Джумриите, България",
    "district": null,
    "name": "Джумриите",
    "suburb": null,
    "postcode": "5302",
    "city": "Джумриите",
    "county": "Габрово",
    "country": "България",
    "country_code": "bg"
  },
  {
    "naseleno_mqsto": "с. Продановци",
    "amount": "5",
    "lat": "42.34515",
    "lon": "23.52042",
    "formatted": "2017 Продановци, България",
    "district": null,
    "name": "Продановци",
    "suburb": null,
    "postcode": "2017",
    "city": "Продановци",
    "county": "Софийска",
    "country": "България",
    "country_code": "bg"
  },
  {
    "naseleno_mqsto": "с. Горни Върпища",
    "amount": "5",
    "lat": "42.93017",
    "lon": "25.42586",
    "formatted": "5343 Горни Върпища, България",
    "district": null,
    "name": "Горни Върпища",
    "suburb": null,
    "postcode": "5343",
    "city": "Горни Върпища",
    "county": "Габрово",
    "country": "България",
    "country_code": "bg"
  },
  {
    "naseleno_mqsto": "с. Долни Върпища",
    "amount": "5",
    "lat": "42.93674",
    "lon": "25.42749",
    "formatted": "5343 Долни Върпища, България",
    "district": null,
    "name": "Долни Върпища",
    "suburb": null,
    "postcode": "5343",
    "city": "Долни Върпища",
    "county": "Габрово",
    "country": "България",
    "country_code": "bg"
  },
  {
    "naseleno_mqsto": "с. Игнатовци",
    "amount": "5",
    "lat": "42.93536",
    "lon": "25.52684",
    "formatted": "Игнатовци, Габрово, България",
    "district": null,
    "name": "Игнатовци",
    "suburb": null,
    "postcode": null,
    "city": "Игнатовци",
    "county": "Габрово",
    "country": "България",
    "country_code": "bg"
  },
  {
    "naseleno_mqsto": "с. Армянковци",
    "amount": "5",
    "lat": "42.87116",
    "lon": "25.57036",
    "formatted": "Армянковци, Габрово, България",
    "district": null,
    "name": "Армянковци",
    "suburb": null,
    "postcode": null,
    "city": "Армянковци",
    "county": "Габрово",
    "country": "България",
    "country_code": "bg"
  },
  {
    "naseleno_mqsto": "с. Бахреци",
    "amount": "5",
    "lat": "42.82975",
    "lon": "25.53405",
    "formatted": "Бахреци, Габрово, България",
    "district": null,
    "name": "Бахреци",
    "suburb": null,
    "postcode": null,
    "city": "Бахреци",
    "county": "Габрово",
    "country": "България",
    "country_code": "bg"
  },
  {
    "naseleno_mqsto": "с. Маневци",
    "amount": "5",
    "lat": "42.86275",
    "lon": "25.53504",
    "formatted": "5350 Маневци, България",
    "district": null,
    "name": "Маневци",
    "suburb": null,
    "postcode": "5350",
    "city": "Маневци",
    "county": "Габрово",
    "country": "България",
    "country_code": "bg"
  },
  {
    "naseleno_mqsto": "с. Узово",
    "amount": "5",
    "lat": "43.76801",
    "lon": "27.91238",
    "formatted": "Узово, Добрич, България",
    "district": null,
    "name": null,
    "suburb": null,
    "postcode": null,
    "city": "Узово",
    "county": "Добрич",
    "country": "България",
    "country_code": "bg"
  },
  {
    "naseleno_mqsto": "с. Мечово",
    "amount": "5",
    "lat": "43.05896",
    "lon": "26.09019",
    "formatted": "Мечово, Търговище, България",
    "district": null,
    "name": null,
    "suburb": null,
    "postcode": null,
    "city": "Мечово",
    "county": "Търговище",
    "country": "България",
    "country_code": "bg"
  },
  {
    "naseleno_mqsto": "с. Пиринец",
    "amount": "5",
    "lat": "43.20521",
    "lon": "26.18581",
    "formatted": "Пиринец, Търговище, България",
    "district": null,
    "name": null,
    "suburb": null,
    "postcode": null,
    "city": "Пиринец",
    "county": "Търговище",
    "country": "България",
    "country_code": "bg"
  },
  {
    "naseleno_mqsto": "с. Братан",
    "amount": "5",
    "lat": "42.98575",
    "lon": "26.34189",
    "formatted": "Братан, Сливен, България",
    "district": null,
    "name": "Братан",
    "suburb": null,
    "postcode": null,
    "city": "Братан",
    "county": "Сливен",
    "country": "България",
    "country_code": "bg"
  },
  {
    "naseleno_mqsto": "с. Лещен",
    "amount": "5",
    "lat": "41.6369093",
    "lon": "23.8278291",
    "formatted": "2962 Лещен, България",
    "district": null,
    "name": "Лещен",
    "suburb": null,
    "postcode": "2962",
    "city": "Лещен",
    "county": "Благоевград",
    "country": "България",
    "country_code": "bg"
  },
  {
    "naseleno_mqsto": "с. Белевехчево",
    "amount": "5",
    "lat": "41.5661382",
    "lon": "23.3087588",
    "formatted": "2800 Белевехчево, България",
    "district": null,
    "name": "Белевехчево",
    "suburb": null,
    "postcode": "2800",
    "city": "Белевехчево",
    "county": "Благоевград",
    "country": "България",
    "country_code": "bg"
  },
  {
    "naseleno_mqsto": "с. Вракуповица",
    "amount": "5",
    "lat": "41.66284",
    "lon": "23.08925",
    "formatted": "2834 Вракуповица, България",
    "district": null,
    "name": "Вракуповица",
    "suburb": null,
    "postcode": "2834",
    "city": "Вракуповица",
    "county": "Благоевград",
    "country": "България",
    "country_code": "bg"
  },
  {
    "naseleno_mqsto": "с. Локвата",
    "amount": "5",
    "lat": "42.2325776",
    "lon": "22.9587094",
    "formatted": "Локвата, Кюстендил, България",
    "district": null,
    "name": "Локвата",
    "suburb": null,
    "postcode": null,
    "city": "Локвата",
    "county": "Кюстендил",
    "country": "България",
    "country_code": "bg"
  },
  {
    "naseleno_mqsto": "с. Гърбино",
    "amount": "5",
    "lat": "42.4134948",
    "lon": "22.7112165",
    "formatted": "Гърбино, Кюстендил, България",
    "district": null,
    "name": "Гърбино",
    "suburb": null,
    "postcode": null,
    "city": "Кюстендил",
    "county": "Кюстендил",
    "country": "България",
    "country_code": "bg"
  },
  {
    "naseleno_mqsto": "с. Билинци",
    "amount": "5",
    "lat": "42.79228",
    "lon": "22.8176",
    "formatted": "Билинци, Перник, България",
    "district": null,
    "name": "Билинци",
    "suburb": null,
    "postcode": null,
    "city": "Билинци",
    "county": "Перник",
    "country": "България",
    "country_code": "bg"
  },
  {
    "naseleno_mqsto": "с. Брусник",
    "amount": "5",
    "lat": "42.83683",
    "lon": "22.83708",
    "formatted": "Брусник, Перник, България",
    "district": null,
    "name": "Брусник",
    "suburb": null,
    "postcode": null,
    "city": "Брусник",
    "county": "Перник",
    "country": "България",
    "country_code": "bg"
  },
  {
    "naseleno_mqsto": "с. Илинден",
    "amount": "5",
    "lat": "42.5805339",
    "lon": "23.941429",
    "formatted": "2072 Илинден, България",
    "district": null,
    "name": "Илинден",
    "suburb": null,
    "postcode": "2072",
    "city": "Илинден",
    "county": "Софийска",
    "country": "България",
    "country_code": "bg"
  },
  {
    "naseleno_mqsto": "с. Мак",
    "amount": "5",
    "lat": "41.5328722",
    "lon": "25.1880482",
    "formatted": "6842 Мак, България",
    "district": null,
    "name": "Мак",
    "suburb": null,
    "postcode": "6842",
    "city": "Мак",
    "county": "Кърджали",
    "country": "България",
    "country_code": "bg"
  },
  {
    "naseleno_mqsto": "с. Планинско",
    "amount": "5",
    "lat": "41.7557786",
    "lon": "24.9952268",
    "formatted": "Планинско, Баните, България",
    "district": null,
    "name": "Планинско",
    "suburb": "Планинско",
    "postcode": null,
    "city": "Баните",
    "county": "Смолян",
    "country": "България",
    "country_code": "bg"
  },
  {
    "naseleno_mqsto": "с. Гращица",
    "amount": "5",
    "lat": "41.6544115",
    "lon": "24.6197856",
    "formatted": "Гращица, Смолян, България",
    "district": null,
    "name": "Гращица",
    "suburb": null,
    "postcode": null,
    "city": "Гращица",
    "county": "Смолян",
    "country": "България",
    "country_code": "bg"
  },
  {
    "naseleno_mqsto": "с. Ельово",
    "amount": "5",
    "lat": "41.44684",
    "lon": "24.72038",
    "formatted": "Ельово, Смолян, България",
    "district": null,
    "name": "Ельово",
    "suburb": null,
    "postcode": null,
    "city": "Ельово",
    "county": "Смолян",
    "country": "България",
    "country_code": "bg"
  },
  {
    "naseleno_mqsto": "с. Заевите",
    "amount": "5",
    "lat": "41.6704613",
    "lon": "24.5679371",
    "formatted": "4838 Заевите, България",
    "district": null,
    "name": "Заевите",
    "suburb": null,
    "postcode": "4838",
    "city": "Заевите",
    "county": "Смолян",
    "country": "България",
    "country_code": "bg"
  },
  {
    "naseleno_mqsto": "с. Писаница",
    "amount": "5",
    "lat": "41.59366",
    "lon": "24.75123",
    "formatted": "4701 Писаница, България",
    "district": null,
    "name": "Писаница",
    "suburb": null,
    "postcode": "4701",
    "city": "Писаница",
    "county": "Смолян",
    "country": "България",
    "country_code": "bg"
  },
  {
    "naseleno_mqsto": "с. Ухловица",
    "amount": "5",
    "lat": "41.5099534",
    "lon": "24.6555579",
    "formatted": "4761 Ухловица, България",
    "district": null,
    "name": "Ухловица",
    "suburb": null,
    "postcode": "4761",
    "city": "Ухловица",
    "county": "Смолян",
    "country": "България",
    "country_code": "bg"
  },
  {
    "naseleno_mqsto": "с. Черешовска река",
    "amount": "5",
    "lat": "41.5177157",
    "lon": "24.6340862",
    "formatted": "4761 Черешовска река, България",
    "district": null,
    "name": "Черешовска река",
    "suburb": null,
    "postcode": "4761",
    "city": "Черешовска река",
    "county": "Смолян",
    "country": "България",
    "country_code": "bg"
  },
  {
    "naseleno_mqsto": "с. Студенец",
    "amount": "5",
    "lat": "43.42734",
    "lon": "26.6102",
    "formatted": "Студенец, Разград, България",
    "district": null,
    "name": null,
    "suburb": null,
    "postcode": null,
    "city": "Студенец",
    "county": "Разград",
    "country": "България",
    "country_code": "bg"
  },
  {
    "naseleno_mqsto": "с. Ботурче",
    "amount": "5",
    "lat": "41.3811116",
    "lon": "25.940291",
    "formatted": "Ботурче, Хасково, България",
    "district": null,
    "name": "Ботурче",
    "suburb": null,
    "postcode": null,
    "city": "Ботурче",
    "county": "Хасково",
    "country": "България",
    "country_code": "bg"
  },
  {
    "naseleno_mqsto": "с. Сив кладенец",
    "amount": "5",
    "lat": "41.4092501",
    "lon": "26.1588599",
    "formatted": "6585 Сив кладенец, България",
    "district": null,
    "name": "Сив кладенец",
    "suburb": null,
    "postcode": "6585",
    "city": "Сив кладенец",
    "county": "Хасково",
    "country": "България",
    "country_code": "bg"
  },
  {
    "naseleno_mqsto": "с. Сливовник",
    "amount": "6",
    "lat": "43.67655",
    "lon": "22.64452",
    "formatted": "Сливовник, Видин, България",
    "district": null,
    "name": "Сливовник",
    "suburb": null,
    "postcode": null,
    "city": "Сливовник",
    "county": "Видин",
    "country": "България",
    "country_code": "bg"
  },
  {
    "naseleno_mqsto": "с. Помеждин",
    "amount": "6",
    "lat": "43.3783994",
    "lon": "22.9889214",
    "formatted": "Помеждин, Монтана, България",
    "district": null,
    "name": "Помеждин",
    "suburb": null,
    "postcode": null,
    "city": "Помеждин",
    "county": "Монтана",
    "country": "България",
    "country_code": "bg"
  },
  {
    "naseleno_mqsto": "с. Бояновци",
    "amount": "6",
    "lat": "42.9293021",
    "lon": "25.6468843",
    "formatted": "5055 Бояновци, България",
    "district": null,
    "name": "Бояновци",
    "suburb": null,
    "postcode": "5055",
    "city": "Бояновци",
    "county": "Велико Търново",
    "country": "България",
    "country_code": "bg"
  },
  {
    "naseleno_mqsto": "с. Бялковци",
    "amount": "6",
    "lat": "42.94609",
    "lon": "26.00389",
    "formatted": "Бялковци, Велико Търново, България",
    "district": null,
    "name": "Бялковци",
    "suburb": null,
    "postcode": null,
    "city": "Бялковци",
    "county": "Велико Търново",
    "country": "България",
    "country_code": "bg"
  },
  {
    "naseleno_mqsto": "с. Геновци",
    "amount": "6",
    "lat": "42.8461",
    "lon": "25.23249",
    "formatted": "Геновци, Габрово, България",
    "district": null,
    "name": "Геновци",
    "suburb": null,
    "postcode": null,
    "city": "Геновци",
    "county": "Габрово",
    "country": "България",
    "country_code": "bg"
  },
  {
    "naseleno_mqsto": "с. Иглика",
    "amount": "6",
    "lat": "42.96021",
    "lon": "25.38428",
    "formatted": "5343 Иглика, България",
    "district": null,
    "name": "Иглика",
    "suburb": null,
    "postcode": "5343",
    "city": "Иглика",
    "county": "Габрово",
    "country": "България",
    "country_code": "bg"
  },
  {
    "naseleno_mqsto": "с. Малуша",
    "amount": "6",
    "lat": "42.8107614",
    "lon": "25.2910966",
    "formatted": "5304 Малуша, България",
    "district": null,
    "name": "Малуша",
    "suburb": null,
    "postcode": "5304",
    "city": "Малуша",
    "county": "Габрово",
    "country": "България",
    "country_code": "bg"
  },
  {
    "naseleno_mqsto": "с. Сейковци",
    "amount": "6",
    "lat": "42.9479135",
    "lon": "25.2742596",
    "formatted": "5345 Сейковци, България",
    "district": null,
    "name": "Сейковци",
    "suburb": null,
    "postcode": "5345",
    "city": "Сейковци",
    "county": "Габрово",
    "country": "България",
    "country_code": "bg"
  },
  {
    "naseleno_mqsto": "с. Старилковци",
    "amount": "6",
    "lat": "42.9421311",
    "lon": "25.3367906",
    "formatted": "5342 Старилковци, България",
    "district": null,
    "name": "Старилковци",
    "suburb": null,
    "postcode": "5342",
    "city": "Старилковци",
    "county": "Габрово",
    "country": "България",
    "country_code": "bg"
  },
  {
    "naseleno_mqsto": "с. Тодоровци",
    "amount": "6",
    "lat": "42.83494",
    "lon": "25.34853",
    "formatted": "5301 Тодоровци, България",
    "district": null,
    "name": "Тодоровци",
    "suburb": null,
    "postcode": "5301",
    "city": "Тодоровци",
    "county": "Габрово",
    "country": "България",
    "country_code": "bg"
  },
  {
    "naseleno_mqsto": "с. Долни Драгойча",
    "amount": "6",
    "lat": "42.95159",
    "lon": "25.4735",
    "formatted": "5380 Долни Драгойча, България",
    "district": null,
    "name": "Долни Драгойча",
    "suburb": null,
    "postcode": "5380",
    "city": "Долни Драгойча",
    "county": "Габрово",
    "country": "България",
    "country_code": "bg"
  },
  {
    "naseleno_mqsto": "с. Искра",
    "amount": "6",
    "lat": "42.9409198",
    "lon": "25.4729844",
    "formatted": "5380 Искра, България",
    "district": null,
    "name": "Искра",
    "suburb": null,
    "postcode": "5380",
    "city": "Искра",
    "county": "Габрово",
    "country": "България",
    "country_code": "bg"
  },
  {
    "naseleno_mqsto": "с. Бижовци",
    "amount": "6",
    "lat": "42.89116",
    "lon": "25.47599",
    "formatted": "5350 Бижовци, България",
    "district": null,
    "name": "Бижовци",
    "suburb": null,
    "postcode": "5350",
    "city": "Бижовци",
    "county": "Габрово",
    "country": "България",
    "country_code": "bg"
  },
  {
    "naseleno_mqsto": "с. Долни Томчевци",
    "amount": "6",
    "lat": "42.9005297",
    "lon": "25.4424681",
    "formatted": "5350 Долни Томчевци, България",
    "district": null,
    "name": "Долни Томчевци",
    "suburb": null,
    "postcode": "5350",
    "city": "Долни Томчевци",
    "county": "Габрово",
    "country": "България",
    "country_code": "bg"
  },
  {
    "naseleno_mqsto": "с. Дончовци",
    "amount": "6",
    "lat": "42.860377",
    "lon": "25.4468352",
    "formatted": "5350 Дончовци, България",
    "district": null,
    "name": "Дончовци",
    "suburb": null,
    "postcode": "5350",
    "city": "Дончовци",
    "county": "Габрово",
    "country": "България",
    "country_code": "bg"
  },
  {
    "naseleno_mqsto": "с. Дебелец",
    "amount": "6",
    "lat": "43.0431077",
    "lon": "25.6238483",
    "formatted": "5030 Дебелец, България",
    "district": null,
    "name": "Дебелец",
    "suburb": null,
    "postcode": "5030",
    "city": "Дебелец",
    "county": "Велико Търново",
    "country": "България",
    "country_code": "bg"
  },
  {
    "naseleno_mqsto": "с. Малка Черковна",
    "amount": "6",
    "lat": "43.08982",
    "lon": "26.18083",
    "formatted": "Малка Черковна, Търговище, България",
    "district": null,
    "name": null,
    "suburb": null,
    "postcode": null,
    "city": "Малка Черковна",
    "county": "Търговище",
    "country": "България",
    "country_code": "bg"
  },
  {
    "naseleno_mqsto": "с. Дъбова",
    "amount": "6",
    "lat": "42.9694733",
    "lon": "26.2409822",
    "formatted": "Дъбова, Сливен, България",
    "district": null,
    "name": "Дъбова",
    "suburb": null,
    "postcode": null,
    "city": "Дъбова",
    "county": "Сливен",
    "country": "България",
    "country_code": "bg"
  },
  {
    "naseleno_mqsto": "с. Малко Кирилово",
    "amount": "6",
    "lat": "42.0326001",
    "lon": "26.6173199",
    "formatted": "Малко Кирилово, Ямбол, България",
    "district": null,
    "name": "Малко Кирилово",
    "suburb": null,
    "postcode": null,
    "city": "Малко Кирилово",
    "county": "Ямбол",
    "country": "България",
    "country_code": "bg"
  },
  {
    "naseleno_mqsto": "с. Бождово",
    "amount": "6",
    "lat": "41.60134",
    "lon": "23.3593199",
    "formatted": "2811 Бождово, България",
    "district": null,
    "name": "Бождово",
    "suburb": null,
    "postcode": "2811",
    "city": "Бождово",
    "county": "Благоевград",
    "country": "България",
    "country_code": "bg"
  },
  {
    "naseleno_mqsto": "с. Полетинци",
    "amount": "6",
    "lat": "42.42802",
    "lon": "22.62066",
    "formatted": "Полетинци, Кюстендил, България",
    "district": null,
    "name": "Полетинци",
    "suburb": null,
    "postcode": null,
    "city": "Кюстендил",
    "county": "Кюстендил",
    "country": "България",
    "country_code": "bg"
  },
  {
    "naseleno_mqsto": "с. Раянци",
    "amount": "6",
    "lat": "42.5332909",
    "lon": "22.6755891",
    "formatted": "Раянци, Перник, България",
    "district": null,
    "name": "Раянци",
    "suburb": null,
    "postcode": null,
    "city": "Раянци",
    "county": "Перник",
    "country": "България",
    "country_code": "bg"
  },
  {
    "naseleno_mqsto": "с. Слатино",
    "amount": "6",
    "lat": "42.16074",
    "lon": "23.05556",
    "formatted": "2641 Слатино, България",
    "district": null,
    "name": "Слатино",
    "suburb": null,
    "postcode": "2641",
    "city": "Слатино",
    "county": "Кюстендил",
    "country": "България",
    "country_code": "bg"
  },
  {
    "naseleno_mqsto": "с. Проданча",
    "amount": "6",
    "lat": "42.871645",
    "lon": "22.7554664",
    "formatted": "Проданча, Перник, България",
    "district": null,
    "name": "Проданча",
    "suburb": null,
    "postcode": null,
    "city": "Проданча",
    "county": "Перник",
    "country": "България",
    "country_code": "bg"
  },
  {
    "naseleno_mqsto": "с. Камбелевци",
    "amount": "6",
    "lat": "42.8909499",
    "lon": "22.8860746",
    "formatted": "Камбелевци, Софийска, България",
    "district": null,
    "name": "Камбелевци",
    "suburb": null,
    "postcode": null,
    "city": "Камбелевци",
    "county": "Софийска",
    "country": "България",
    "country_code": "bg"
  },
  {
    "naseleno_mqsto": "с. Пановци",
    "amount": "6",
    "lat": "42.5399487",
    "lon": "23.7779779",
    "formatted": "Пановци, Софийска, България",
    "district": null,
    "name": "Пановци",
    "suburb": null,
    "postcode": null,
    "city": "Пановци",
    "county": "Софийска",
    "country": "България",
    "country_code": "bg"
  },
  {
    "naseleno_mqsto": "с. Ръжана",
    "amount": "6",
    "lat": "42.53385",
    "lon": "23.75165",
    "formatted": "2060 Ръжана, България",
    "district": null,
    "name": "Ръжана",
    "suburb": null,
    "postcode": "2060",
    "city": "Ръжана",
    "county": "Софийска",
    "country": "България",
    "country_code": "bg"
  },
  {
    "naseleno_mqsto": "с. Бахалин",
    "amount": "6",
    "lat": "42.88382",
    "lon": "22.91386",
    "formatted": "2219 Бахалин, България",
    "district": null,
    "name": "Бахалин",
    "suburb": null,
    "postcode": "2219",
    "city": "Бахалин",
    "county": "Софийска",
    "country": "България",
    "country_code": "bg"
  },
  {
    "naseleno_mqsto": "с. Пищане",
    "amount": "6",
    "lat": "42.8238311",
    "lon": "22.864005",
    "formatted": "Пищане, Софийска, България",
    "district": null,
    "name": "Пищане",
    "suburb": null,
    "postcode": null,
    "city": "Пищане",
    "county": "Софийска",
    "country": "България",
    "country_code": "bg"
  },
  {
    "naseleno_mqsto": "с. Каменяне",
    "amount": "6",
    "lat": "41.53787",
    "lon": "25.29583",
    "formatted": "6636 Каменяне, България",
    "district": null,
    "name": "Каменяне",
    "suburb": null,
    "postcode": "6636",
    "city": "Каменяне",
    "county": "Кърджали",
    "country": "България",
    "country_code": "bg"
  },
  {
    "naseleno_mqsto": "с. Чурен",
    "amount": "6",
    "lat": "41.9530113",
    "lon": "24.5273917",
    "formatted": "Чурен, Пловдив, България",
    "district": null,
    "name": "Чурен",
    "suburb": null,
    "postcode": null,
    "city": "Чурен",
    "county": "Пловдив",
    "country": "България",
    "country_code": "bg"
  },
  {
    "naseleno_mqsto": "с. Върбово",
    "amount": "6",
    "lat": "41.76274",
    "lon": "25.85763",
    "formatted": "Върбово, Хасково, България",
    "district": null,
    "name": "Върбово",
    "suburb": null,
    "postcode": null,
    "city": "Върбово",
    "county": "Хасково",
    "country": "България",
    "country_code": "bg"
  },
  {
    "naseleno_mqsto": "с. Змиево",
    "amount": "6",
    "lat": "41.4925088",
    "lon": "24.7719834",
    "formatted": "Змиево, Смолян, България",
    "district": null,
    "name": "Змиево",
    "suburb": null,
    "postcode": null,
    "city": "Змиево",
    "county": "Смолян",
    "country": "България",
    "country_code": "bg"
  },
  {
    "naseleno_mqsto": "с. Черешово",
    "amount": "6",
    "lat": "41.5174594",
    "lon": "24.6407811",
    "formatted": "4761 Черешово, България",
    "district": null,
    "name": "Черешово",
    "suburb": null,
    "postcode": "4761",
    "city": "Черешово",
    "county": "Смолян",
    "country": "България",
    "country_code": "bg"
  },
  {
    "naseleno_mqsto": "с. Вис",
    "amount": "6",
    "lat": "41.44637",
    "lon": "25.8562199",
    "formatted": "Вис, Хасково, България",
    "district": null,
    "name": "Вис",
    "suburb": null,
    "postcode": null,
    "city": "Вис",
    "county": "Хасково",
    "country": "България",
    "country_code": "bg"
  },
  {
    "naseleno_mqsto": "с. Орешец",
    "amount": "7",
    "lat": "41.7641201",
    "lon": "25.9093899",
    "formatted": "Орешец, Хасково, България",
    "district": null,
    "name": "Орешец",
    "suburb": null,
    "postcode": null,
    "city": "Орешец",
    "county": "Хасково",
    "country": "България",
    "country_code": "bg"
  },
  {
    "naseleno_mqsto": "с. Горен Еневец",
    "amount": "7",
    "lat": "42.92086",
    "lon": "25.56744",
    "formatted": "Горен Еневец, Велико Търново, България",
    "district": null,
    "name": "Горен Еневец",
    "suburb": null,
    "postcode": null,
    "city": "Горен Еневец",
    "county": "Велико Търново",
    "country": "България",
    "country_code": "bg"
  },
  {
    "naseleno_mqsto": "с. Суха река",
    "amount": "7",
    "lat": "43.13106",
    "lon": "26.93957",
    "formatted": "Суха река, Шумен, България",
    "district": null,
    "name": null,
    "suburb": null,
    "postcode": null,
    "city": "Суха река",
    "county": "Шумен",
    "country": "България",
    "country_code": "bg"
  },
  {
    "naseleno_mqsto": "с. Багалевци",
    "amount": "7",
    "lat": "42.8924706",
    "lon": "25.8127747",
    "formatted": "Багалевци, Велико Търново, България",
    "district": null,
    "name": "Багалевци",
    "suburb": null,
    "postcode": null,
    "city": "Багалевци",
    "county": "Велико Търново",
    "country": "България",
    "country_code": "bg"
  },
  {
    "naseleno_mqsto": "с. Балуци",
    "amount": "7",
    "lat": "42.95116",
    "lon": "25.82364",
    "formatted": "Балуци, Велико Търново, България",
    "district": null,
    "name": "Балуци",
    "suburb": null,
    "postcode": null,
    "city": "Балуци",
    "county": "Велико Търново",
    "country": "България",
    "country_code": "bg"
  },
  {
    "naseleno_mqsto": "с. Берковци",
    "amount": "7",
    "lat": "42.88713",
    "lon": "25.72533",
    "formatted": "5093 Берковци, България",
    "district": null,
    "name": "Берковци",
    "suburb": null,
    "postcode": "5093",
    "city": "Берковци",
    "county": "Велико Търново",
    "country": "България",
    "country_code": "bg"
  },
  {
    "naseleno_mqsto": "с. Велювци",
    "amount": "7",
    "lat": "42.9702642",
    "lon": "25.8391364",
    "formatted": "Велювци, Велико Търново, България",
    "district": null,
    "name": "Велювци",
    "suburb": null,
    "postcode": null,
    "city": "Велювци",
    "county": "Велико Търново",
    "country": "България",
    "country_code": "bg"
  },
  {
    "naseleno_mqsto": "с. Игнатовци",
    "amount": "7",
    "lat": "42.93536",
    "lon": "25.52684",
    "formatted": "Игнатовци, Габрово, България",
    "district": null,
    "name": "Игнатовци",
    "suburb": null,
    "postcode": null,
    "city": "Игнатовци",
    "county": "Габрово",
    "country": "България",
    "country_code": "bg"
  },
  {
    "naseleno_mqsto": "с. Кожлювци",
    "amount": "7",
    "lat": "42.85837",
    "lon": "25.90896",
    "formatted": "Кожлювци, Велико Търново, България",
    "district": null,
    "name": "Кожлювци",
    "suburb": null,
    "postcode": null,
    "city": "Кожлювци",
    "county": "Велико Търново",
    "country": "България",
    "country_code": "bg"
  },
  {
    "naseleno_mqsto": "с. Ребревци",
    "amount": "7",
    "lat": "42.9057934",
    "lon": "25.76886",
    "formatted": "5093 Ребревци, България",
    "district": null,
    "name": "Ребревци",
    "suburb": null,
    "postcode": "5093",
    "city": "Ребревци",
    "county": "Велико Търново",
    "country": "България",
    "country_code": "bg"
  },
  {
    "naseleno_mqsto": "с. Водно",
    "amount": "7",
    "lat": "43.8736366",
    "lon": "27.152411233318393",
    "formatted": "Водно, Дулово, България",
    "district": "Водно",
    "name": null,
    "suburb": null,
    "postcode": null,
    "city": "Дулово",
    "county": "Силистра",
    "country": "България",
    "country_code": "bg"
  },
  {
    "naseleno_mqsto": "с. Любенци",
    "amount": "7",
    "lat": "43.20968",
    "lon": "26.10006",
    "formatted": "5175 Любенци, България",
    "district": null,
    "name": "Любенци",
    "suburb": null,
    "postcode": "5175",
    "city": "Любенци",
    "county": "Велико Търново",
    "country": "България",
    "country_code": "bg"
  },
  {
    "naseleno_mqsto": "с. Баевци",
    "amount": "7",
    "lat": "42.8124549",
    "lon": "25.2838259",
    "formatted": "5304 Баевци, България",
    "district": null,
    "name": "Баевци",
    "suburb": null,
    "postcode": "5304",
    "city": "Баевци",
    "county": "Габрово",
    "country": "България",
    "country_code": "bg"
  },
  {
    "naseleno_mqsto": "с. Бялково",
    "amount": "7",
    "lat": "42.944791",
    "lon": "25.2798365",
    "formatted": "5345 Бялково, България",
    "district": null,
    "name": "Бялково",
    "suburb": null,
    "postcode": "5345",
    "city": "Бялково",
    "county": "Габрово",
    "country": "България",
    "country_code": "bg"
  },
  {
    "naseleno_mqsto": "с. Карали",
    "amount": "7",
    "lat": "42.9492154",
    "lon": "25.3916099",
    "formatted": "5343 Карали, България",
    "district": null,
    "name": "Карали",
    "suburb": null,
    "postcode": "5343",
    "city": "Карали",
    "county": "Габрово",
    "country": "България",
    "country_code": "bg"
  },
  {
    "naseleno_mqsto": "с. Колишовци",
    "amount": "7",
    "lat": "42.9514289",
    "lon": "25.4086655",
    "formatted": "5343 Колишовци, България",
    "district": null,
    "name": "Колишовци",
    "suburb": null,
    "postcode": "5343",
    "city": "Колишовци",
    "county": "Габрово",
    "country": "България",
    "country_code": "bg"
  },
  {
    "naseleno_mqsto": "с. Поток",
    "amount": "7",
    "lat": "42.7738095",
    "lon": "25.3647925",
    "formatted": "Поток, Габрово, България",
    "district": null,
    "name": "Поток",
    "suburb": null,
    "postcode": null,
    "city": "Поток",
    "county": "Габрово",
    "country": "България",
    "country_code": "bg"
  },
  {
    "naseleno_mqsto": "с. Руйчовци",
    "amount": "7",
    "lat": "42.82662",
    "lon": "25.24047",
    "formatted": "Руйчовци, Габрово, България",
    "district": null,
    "name": "Руйчовци",
    "suburb": null,
    "postcode": null,
    "city": "Руйчовци",
    "county": "Габрово",
    "country": "България",
    "country_code": "bg"
  },
  {
    "naseleno_mqsto": "с. Балванците",
    "amount": "7",
    "lat": "43.01862",
    "lon": "25.44942",
    "formatted": "Балванците, Габрово, България",
    "district": null,
    "name": "Балванците",
    "suburb": null,
    "postcode": null,
    "city": "Балванците",
    "county": "Габрово",
    "country": "България",
    "country_code": "bg"
  },
  {
    "naseleno_mqsto": "с. Големи Българени",
    "amount": "7",
    "lat": "42.94704",
    "lon": "25.5728",
    "formatted": "Големи Българени, Велико Търново, България",
    "district": null,
    "name": "Големи Българени",
    "suburb": null,
    "postcode": null,
    "city": "Големи Българени",
    "county": "Велико Търново",
    "country": "България",
    "country_code": "bg"
  },
  {
    "naseleno_mqsto": "с. Глутниците",
    "amount": "7",
    "lat": "42.83511",
    "lon": "25.58705",
    "formatted": "Глутниците, Габрово, България",
    "district": null,
    "name": "Глутниците",
    "suburb": null,
    "postcode": null,
    "city": "Глутниците",
    "county": "Габрово",
    "country": "България",
    "country_code": "bg"
  },
  {
    "naseleno_mqsto": "с. Кашенци",
    "amount": "7",
    "lat": "42.8497274",
    "lon": "25.4377267",
    "formatted": "5360 Кашенци, България",
    "district": null,
    "name": "Кашенци",
    "suburb": null,
    "postcode": "5360",
    "city": "Кашенци",
    "county": "Габрово",
    "country": "България",
    "country_code": "bg"
  },
  {
    "naseleno_mqsto": "с. Сечен камък",
    "amount": "7",
    "lat": "42.8192042",
    "lon": "25.457073",
    "formatted": "5360 Сечен камък, България",
    "district": null,
    "name": "Сечен камък",
    "suburb": null,
    "postcode": "5360",
    "city": "Сечен камък",
    "county": "Габрово",
    "country": "България",
    "country_code": "bg"
  },
  {
    "naseleno_mqsto": "с. Земенци",
    "amount": "7",
    "lat": "43.79985",
    "lon": "27.77831",
    "formatted": "Земенци, Добрич, България",
    "district": null,
    "name": null,
    "suburb": null,
    "postcode": null,
    "city": "Земенци",
    "county": "Добрич",
    "country": "България",
    "country_code": "bg"
  },
  {
    "naseleno_mqsto": "с. Девино",
    "amount": "7",
    "lat": "43.13209",
    "lon": "26.12191",
    "formatted": "7972 Девино, България",
    "district": null,
    "name": null,
    "suburb": null,
    "postcode": "7972",
    "city": "Девино",
    "county": "Търговище",
    "country": "България",
    "country_code": "bg"
  },
  {
    "naseleno_mqsto": "с. Язовец",
    "amount": "7",
    "lat": "43.17341",
    "lon": "26.22293",
    "formatted": "Язовец, Търговище, България",
    "district": null,
    "name": null,
    "suburb": null,
    "postcode": null,
    "city": "Язовец",
    "county": "Търговище",
    "country": "България",
    "country_code": "bg"
  },
  {
    "naseleno_mqsto": "с. Осларка",
    "amount": "7",
    "lat": "42.19756",
    "lon": "25.50041",
    "formatted": "Осларка, Стара Загора, България",
    "district": null,
    "name": null,
    "suburb": null,
    "postcode": null,
    "city": "Осларка",
    "county": "Стара Загора",
    "country": "България",
    "country_code": "bg"
  },
  {
    "naseleno_mqsto": "с. Волно",
    "amount": "7",
    "lat": "41.4822835",
    "lon": "23.0308226",
    "formatted": "2886 Волно, България",
    "district": null,
    "name": "Волно",
    "suburb": null,
    "postcode": "2886",
    "city": "Волно",
    "county": "Благоевград",
    "country": "България",
    "country_code": "bg"
  },
  {
    "naseleno_mqsto": "с. Горно Уйно",
    "amount": "7",
    "lat": "42.45231",
    "lon": "22.57263",
    "formatted": "Горно Уйно, Кюстендил, България",
    "district": null,
    "name": "Горно Уйно",
    "suburb": null,
    "postcode": null,
    "city": "Кюстендил",
    "county": "Кюстендил",
    "country": "България",
    "country_code": "bg"
  },
  {
    "naseleno_mqsto": "с. Кутугерци",
    "amount": "7",
    "lat": "42.32511",
    "lon": "22.48646",
    "formatted": "Кутугерци, Кюстендил, България",
    "district": null,
    "name": "Кутугерци",
    "suburb": null,
    "postcode": null,
    "city": "Кюстендил",
    "county": "Кюстендил",
    "country": "България",
    "country_code": "bg"
  },
  {
    "naseleno_mqsto": "с. Озърновци",
    "amount": "7",
    "lat": "42.81666",
    "lon": "22.88772",
    "formatted": "Озърновци, Перник, България",
    "district": null,
    "name": "Озърновци",
    "suburb": null,
    "postcode": null,
    "city": "Озърновци",
    "county": "Перник",
    "country": "България",
    "country_code": "bg"
  },
  {
    "naseleno_mqsto": "с. Шипковица",
    "amount": "7",
    "lat": "42.6416784",
    "lon": "22.5212877",
    "formatted": "Шипковица, Перник, България",
    "district": null,
    "name": null,
    "suburb": null,
    "postcode": null,
    "city": "Шипковица",
    "county": "Перник",
    "country": "България",
    "country_code": "bg"
  },
  {
    "naseleno_mqsto": "с. Лъвово",
    "amount": "7",
    "lat": "41.5689672",
    "lon": "25.3407875",
    "formatted": "Лъвово, 6643 Кърджали, България",
    "district": null,
    "name": "Лъвово",
    "suburb": null,
    "postcode": "6643",
    "city": "Кърджали",
    "county": "Кърджали",
    "country": "България",
    "country_code": "bg"
  },
  {
    "naseleno_mqsto": "с. Свети Константин",
    "amount": "7",
    "lat": "42.0266449",
    "lon": "24.226886",
    "formatted": "Свети Константин, Пещера, България",
    "district": null,
    "name": "Свети Константин",
    "suburb": "Свети Константин",
    "postcode": null,
    "city": "Пещера",
    "county": "Пазарджик",
    "country": "България",
    "country_code": "bg"
  },
  {
    "naseleno_mqsto": "с. Сини връх",
    "amount": "7",
    "lat": "41.8426613",
    "lon": "24.9723382",
    "formatted": "Сини връх, Пловдив, България",
    "district": null,
    "name": "Сини връх",
    "suburb": null,
    "postcode": null,
    "city": "Сини връх",
    "county": "Пловдив",
    "country": "България",
    "country_code": "bg"
  },
  {
    "naseleno_mqsto": "с. Узуново",
    "amount": "7",
    "lat": "41.84154",
    "lon": "25.09872",
    "formatted": "Узуново, Пловдив, България",
    "district": null,
    "name": "Узуново",
    "suburb": null,
    "postcode": null,
    "city": "Узуново",
    "county": "Пловдив",
    "country": "България",
    "country_code": "bg"
  },
  {
    "naseleno_mqsto": "с. Рибен дол",
    "amount": "7",
    "lat": "41.744748",
    "lon": "25.0280851",
    "formatted": "Рибен дол, Смолян, България",
    "district": null,
    "name": "Рибен дол",
    "suburb": null,
    "postcode": null,
    "city": "Рибен дол",
    "county": "Смолян",
    "country": "България",
    "country_code": "bg"
  },
  {
    "naseleno_mqsto": "с. Вранинци",
    "amount": "7",
    "lat": "41.5130626",
    "lon": "24.9535889",
    "formatted": "Вранинци, Смолян, България",
    "district": null,
    "name": "Вранинци",
    "suburb": null,
    "postcode": null,
    "city": "Вранинци",
    "county": "Смолян",
    "country": "България",
    "country_code": "bg"
  },
  {
    "naseleno_mqsto": "с. Хасовица",
    "amount": "7",
    "lat": "41.5825",
    "lon": "24.75252",
    "formatted": "4701 Хасовица, България",
    "district": null,
    "name": "Хасовица",
    "suburb": null,
    "postcode": "4701",
    "city": "Хасовица",
    "county": "Смолян",
    "country": "България",
    "country_code": "bg"
  },
  {
    "naseleno_mqsto": "с. Малко Попово",
    "amount": "7",
    "lat": "41.6019",
    "lon": "25.90402",
    "formatted": "6482 Малко Попово, България",
    "district": null,
    "name": "Малко Попово",
    "suburb": null,
    "postcode": "6482",
    "city": "Малко Попово",
    "county": "Хасково",
    "country": "България",
    "country_code": "bg"
  },
  {
    "naseleno_mqsto": "с. Пролазница",
    "amount": "8",
    "lat": "43.583",
    "lon": "22.65426",
    "formatted": "3900 Пролазница, България",
    "district": null,
    "name": "Пролазница",
    "suburb": null,
    "postcode": "3900",
    "city": "Пролазница",
    "county": "Видин",
    "country": "България",
    "country_code": "bg"
  },
  {
    "naseleno_mqsto": "с. Малчовци",
    "amount": "8",
    "lat": "42.8452",
    "lon": "25.54877",
    "formatted": "Малчовци, Габрово, България",
    "district": null,
    "name": "Малчовци",
    "suburb": null,
    "postcode": null,
    "city": "Малчовци",
    "county": "Габрово",
    "country": "България",
    "country_code": "bg"
  },
  {
    "naseleno_mqsto": "с. Големани",
    "amount": "8",
    "lat": "42.956655",
    "lon": "25.8346842",
    "formatted": "Големани, Велико Търново, България",
    "district": null,
    "name": "Големани",
    "suburb": null,
    "postcode": null,
    "city": "Големани",
    "county": "Велико Търново",
    "country": "България",
    "country_code": "bg"
  },
  {
    "naseleno_mqsto": "с. Николовци",
    "amount": "8",
    "lat": "42.9617114",
    "lon": "25.8488463",
    "formatted": "Николовци, Велико Търново, България",
    "district": null,
    "name": "Николовци",
    "suburb": null,
    "postcode": null,
    "city": "Николовци",
    "county": "Велико Търново",
    "country": "България",
    "country_code": "bg"
  },
  {
    "naseleno_mqsto": "с. Христовци",
    "amount": "8",
    "lat": "42.89605",
    "lon": "25.90613",
    "formatted": "5017 Христовци, България",
    "district": null,
    "name": "Христовци",
    "suburb": null,
    "postcode": "5017",
    "city": "Христовци",
    "county": "Велико Търново",
    "country": "България",
    "country_code": "bg"
  },
  {
    "naseleno_mqsto": "с. Шилковци",
    "amount": "8",
    "lat": "42.9262707",
    "lon": "25.7755237",
    "formatted": "5093 Шилковци, България",
    "district": null,
    "name": "Шилковци",
    "suburb": null,
    "postcode": "5093",
    "city": "Шилковци",
    "county": "Велико Търново",
    "country": "България",
    "country_code": "bg"
  },
  {
    "naseleno_mqsto": "с. Бобевци",
    "amount": "8",
    "lat": "42.9422955",
    "lon": "25.3000394",
    "formatted": "5345 Бобевци, България",
    "district": null,
    "name": "Бобевци",
    "suburb": null,
    "postcode": "5345",
    "city": "Бобевци",
    "county": "Габрово",
    "country": "България",
    "country_code": "bg"
  },
  {
    "naseleno_mqsto": "с. Иванили",
    "amount": "8",
    "lat": "42.9484297",
    "lon": "25.3056461",
    "formatted": "Иванили, Габрово, България",
    "district": null,
    "name": "Иванили",
    "suburb": null,
    "postcode": null,
    "city": "Иванили",
    "county": "Габрово",
    "country": "България",
    "country_code": "bg"
  },
  {
    "naseleno_mqsto": "с. Мечковица",
    "amount": "8",
    "lat": "42.84593",
    "lon": "25.2445",
    "formatted": "Мечковица, Габрово, България",
    "district": null,
    "name": "Мечковица",
    "suburb": null,
    "postcode": null,
    "city": "Мечковица",
    "county": "Габрово",
    "country": "България",
    "country_code": "bg"
  },
  {
    "naseleno_mqsto": "с. Шипчените",
    "amount": "8",
    "lat": "42.9406512",
    "lon": "25.274191",
    "formatted": "5345 Шипчените, България",
    "district": null,
    "name": "Шипчените",
    "suburb": null,
    "postcode": "5345",
    "city": "Шипчените",
    "county": "Габрово",
    "country": "България",
    "country_code": "bg"
  },
  {
    "naseleno_mqsto": "с. Генчовци",
    "amount": "8",
    "lat": "42.8796461",
    "lon": "25.47064",
    "formatted": "Генчовци, Зеленика, България",
    "district": null,
    "name": "Генчовци",
    "suburb": "Генчовци",
    "postcode": "5350",
    "city": "Зеленика",
    "county": "Габрово",
    "country": "България",
    "country_code": "bg"
  },
  {
    "naseleno_mqsto": "с. Зеленика",
    "amount": "8",
    "lat": "42.8704049",
    "lon": "25.4685474",
    "formatted": "5350 Зеленика, България",
    "district": null,
    "name": "Зеленика",
    "suburb": null,
    "postcode": "5350",
    "city": "Зеленика",
    "county": "Габрово",
    "country": "България",
    "country_code": "bg"
  },
  {
    "naseleno_mqsto": "с. Николаево",
    "amount": "8",
    "lat": "42.6289156",
    "lon": "25.7914125",
    "formatted": "Николаево, Стара Загора, България",
    "district": null,
    "name": null,
    "suburb": null,
    "postcode": null,
    "city": "Николаево",
    "county": "Стара Загора",
    "country": "България",
    "country_code": "bg"
  },
  {
    "naseleno_mqsto": "с. Носеите",
    "amount": "8",
    "lat": "42.8161534",
    "lon": "25.4487667",
    "formatted": "5360 Носеите, България",
    "district": null,
    "name": "Носеите",
    "suburb": null,
    "postcode": "5360",
    "city": "Носеите",
    "county": "Габрово",
    "country": "България",
    "country_code": "bg"
  },
  {
    "naseleno_mqsto": "с. Господиново",
    "amount": "8",
    "lat": "43.9219",
    "lon": "27.4867",
    "formatted": "Господиново, Силистра, България",
    "district": null,
    "name": null,
    "suburb": null,
    "postcode": null,
    "city": "Господиново",
    "county": "Силистра",
    "country": "България",
    "country_code": "bg"
  },
  {
    "naseleno_mqsto": "с. Огняново",
    "amount": "8",
    "lat": "42.61933",
    "lon": "23.73367",
    "formatted": "2118 Огняново, България",
    "district": null,
    "name": "Огняново",
    "suburb": null,
    "postcode": "2118",
    "city": "Огняново",
    "county": "Софийска",
    "country": "България",
    "country_code": "bg"
  },
  {
    "naseleno_mqsto": "с. Банковец",
    "amount": "8",
    "lat": "43.0769",
    "lon": "26.16057",
    "formatted": "Банковец, Търговище, България",
    "district": null,
    "name": null,
    "suburb": null,
    "postcode": null,
    "city": "Банковец",
    "county": "Търговище",
    "country": "България",
    "country_code": "bg"
  },
  {
    "naseleno_mqsto": "с. Долна Златица",
    "amount": "8",
    "lat": "43.20195",
    "lon": "26.14723",
    "formatted": "Долна Златица, Търговище, България",
    "district": null,
    "name": null,
    "suburb": null,
    "postcode": null,
    "city": "Долна Златица",
    "county": "Търговище",
    "country": "България",
    "country_code": "bg"
  },
  {
    "naseleno_mqsto": "с. Дъбравица",
    "amount": "8",
    "lat": "43.0848101",
    "lon": "26.1492138",
    "formatted": "Дъбравица, Търговище, България",
    "district": null,
    "name": null,
    "suburb": null,
    "postcode": null,
    "city": "Дъбравица",
    "county": "Търговище",
    "country": "България",
    "country_code": "bg"
  },
  {
    "naseleno_mqsto": "с. Пчелно",
    "amount": "8",
    "lat": "43.08209",
    "lon": "26.22975",
    "formatted": "Пчелно, Търговище, България",
    "district": null,
    "name": null,
    "suburb": null,
    "postcode": null,
    "city": "Пчелно",
    "county": "Търговище",
    "country": "България",
    "country_code": "bg"
  },
  {
    "naseleno_mqsto": "с. Свирчово",
    "amount": "8",
    "lat": "43.02231",
    "lon": "26.22469",
    "formatted": "Свирчово, Търговище, България",
    "district": null,
    "name": null,
    "suburb": null,
    "postcode": null,
    "city": "Свирчово",
    "county": "Търговище",
    "country": "България",
    "country_code": "bg"
  },
  {
    "naseleno_mqsto": "с. Халваджийско",
    "amount": "8",
    "lat": "43.09664",
    "lon": "26.15422",
    "formatted": "Халваджийско, Търговище, България",
    "district": null,
    "name": null,
    "suburb": null,
    "postcode": null,
    "city": "Халваджийско",
    "county": "Търговище",
    "country": "България",
    "country_code": "bg"
  },
  {
    "naseleno_mqsto": "с. Сливарово",
    "amount": "8",
    "lat": "41.9679877",
    "lon": "27.6647641",
    "formatted": "8358 Сливарово, България",
    "district": null,
    "name": "Сливарово",
    "suburb": null,
    "postcode": "8358",
    "city": "Сливарово",
    "county": "Бургас",
    "country": "България",
    "country_code": "bg"
  },
  {
    "naseleno_mqsto": "с. Козница",
    "amount": "8",
    "lat": "42.8766099",
    "lon": "27.67853",
    "formatted": "8255 Козница, България",
    "district": null,
    "name": "Козница",
    "suburb": null,
    "postcode": "8255",
    "city": "Козница",
    "county": "Бургас",
    "country": "България",
    "country_code": "bg"
  },
  {
    "naseleno_mqsto": "с. Варовник",
    "amount": "8",
    "lat": "42.21722",
    "lon": "27.23178",
    "formatted": "8338 Варовник, България",
    "district": null,
    "name": "Варовник",
    "suburb": null,
    "postcode": "8338",
    "city": "Варовник",
    "county": "Бургас",
    "country": "България",
    "country_code": "bg"
  },
  {
    "naseleno_mqsto": "с. Долене",
    "amount": "8",
    "lat": "41.4458412",
    "lon": "23.0309545",
    "formatted": "2887 Долене, България",
    "district": null,
    "name": "Долене",
    "suburb": null,
    "postcode": "2887",
    "city": "Долене",
    "county": "Благоевград",
    "country": "България",
    "country_code": "bg"
  },
  {
    "naseleno_mqsto": "с. Пиперица",
    "amount": "8",
    "lat": "41.41118",
    "lon": "23.43858",
    "formatted": "2831 Пиперица, България",
    "district": null,
    "name": "Пиперица",
    "suburb": null,
    "postcode": "2831",
    "city": "Пиперица",
    "county": "Благоевград",
    "country": "България",
    "country_code": "bg"
  },
  {
    "naseleno_mqsto": "с. Ветрен",
    "amount": "8",
    "lat": "44.12717",
    "lon": "27.0327",
    "formatted": "7588 Ветрен, България",
    "district": null,
    "name": null,
    "suburb": null,
    "postcode": "7588",
    "city": "Ветрен",
    "county": "Силистра",
    "country": "България",
    "country_code": "bg"
  },
  {
    "naseleno_mqsto": "с. Падине",
    "amount": "8",
    "lat": "42.6416898",
    "lon": "22.7276985",
    "formatted": "Падине, Перник, България",
    "district": null,
    "name": "Падине",
    "suburb": null,
    "postcode": null,
    "city": "Падине",
    "county": "Перник",
    "country": "България",
    "country_code": "bg"
  },
  {
    "naseleno_mqsto": "с. Богойна",
    "amount": "8",
    "lat": "42.872804",
    "lon": "22.6605956",
    "formatted": "2460 Богойна, България",
    "district": null,
    "name": "Богойна",
    "suburb": null,
    "postcode": "2460",
    "city": "Богойна",
    "county": "Перник",
    "country": "България",
    "country_code": "bg"
  },
  {
    "naseleno_mqsto": "с. Бутроинци",
    "amount": "8",
    "lat": "42.8506439",
    "lon": "22.744207",
    "formatted": "Бутроинци, Перник, България",
    "district": null,
    "name": "Бутроинци",
    "suburb": null,
    "postcode": null,
    "city": "Бутроинци",
    "county": "Перник",
    "country": "България",
    "country_code": "bg"
  },
  {
    "naseleno_mqsto": "с. Видрар",
    "amount": "8",
    "lat": "42.6737747",
    "lon": "22.5898645",
    "formatted": "Видрар, Перник, България",
    "district": null,
    "name": "Видрар",
    "suburb": null,
    "postcode": null,
    "city": "Видрар",
    "county": "Перник",
    "country": "България",
    "country_code": "bg"
  },
  {
    "naseleno_mqsto": "с. Стайчовци",
    "amount": "8",
    "lat": "42.7613243",
    "lon": "22.5373739",
    "formatted": "Стайчовци, Перник, България",
    "district": null,
    "name": "Стайчовци",
    "suburb": null,
    "postcode": null,
    "city": "Стайчовци",
    "county": "Перник",
    "country": "България",
    "country_code": "bg"
  },
  {
    "naseleno_mqsto": "с. Равна",
    "amount": "8",
    "lat": "43.0465233",
    "lon": "23.0112784",
    "formatted": "2240 Равна, България",
    "district": null,
    "name": "Равна",
    "suburb": null,
    "postcode": "2240",
    "city": "Равна",
    "county": "Софийска",
    "country": "България",
    "country_code": "bg"
  },
  {
    "naseleno_mqsto": "с. Дреатин",
    "amount": "8",
    "lat": "42.8781781",
    "lon": "22.7898121",
    "formatted": "Дреатин, Софийска, България",
    "district": null,
    "name": "Дреатин",
    "suburb": null,
    "postcode": null,
    "city": "Дреатин",
    "county": "Софийска",
    "country": "България",
    "country_code": "bg"
  },
  {
    "naseleno_mqsto": "с. Брезовдол",
    "amount": "8",
    "lat": "42.9643723",
    "lon": "23.4894589",
    "formatted": "Брезовдол, Софийска, България",
    "district": null,
    "name": "Брезовдол",
    "suburb": null,
    "postcode": null,
    "city": "Брезовдол",
    "county": "Софийска",
    "country": "България",
    "country_code": "bg"
  },
  {
    "naseleno_mqsto": "с. Костурино",
    "amount": "8",
    "lat": "41.35007",
    "lon": "25.30209",
    "formatted": "мах.Костурино, Кирково, България",
    "district": null,
    "name": "мах.Костурино",
    "suburb": "мах.Костурино",
    "postcode": null,
    "city": "Кирково",
    "county": "Кърджали",
    "country": "България",
    "country_code": "bg"
  },
  {
    "naseleno_mqsto": "с. Стражец",
    "amount": "8",
    "lat": "41.37479",
    "lon": "25.87544",
    "formatted": "Стражец, Кърджали, България",
    "district": null,
    "name": "Стражец",
    "suburb": null,
    "postcode": null,
    "city": "Стражец",
    "county": "Кърджали",
    "country": "България",
    "country_code": "bg"
  },
  {
    "naseleno_mqsto": "с. Боровско",
    "amount": "8",
    "lat": "41.73403",
    "lon": "25.2327",
    "formatted": "6744 Боровско, България",
    "district": null,
    "name": "Боровско",
    "suburb": null,
    "postcode": "6744",
    "city": "Боровско",
    "county": "Кърджали",
    "country": "България",
    "country_code": "bg"
  },
  {
    "naseleno_mqsto": "с. Две тополи",
    "amount": "8",
    "lat": "41.71635",
    "lon": "25.03147",
    "formatted": "Две тополи, Смолян, България",
    "district": null,
    "name": "Две тополи",
    "suburb": null,
    "postcode": null,
    "city": "Две тополи",
    "county": "Смолян",
    "country": "България",
    "country_code": "bg"
  },
  {
    "naseleno_mqsto": "с. Бубино",
    "amount": "8",
    "lat": "41.5586",
    "lon": "25.81124",
    "formatted": "Бубино, Хасково, България",
    "district": null,
    "name": "Бубино",
    "suburb": null,
    "postcode": null,
    "city": "Бубино",
    "county": "Хасково",
    "country": "България",
    "country_code": "bg"
  },
  {
    "naseleno_mqsto": "с. Одринци",
    "amount": "8",
    "lat": "41.4349509",
    "lon": "26.1407498",
    "formatted": "6585 Одринци, България",
    "district": null,
    "name": "Одринци",
    "suburb": null,
    "postcode": "6585",
    "city": "Одринци",
    "county": "Хасково",
    "country": "България",
    "country_code": "bg"
  },
  {
    "naseleno_mqsto": "с. Пашово",
    "amount": "8",
    "lat": "41.8266252",
    "lon": "26.376396",
    "formatted": "Пашово, Хасково, България",
    "district": null,
    "name": null,
    "suburb": null,
    "postcode": null,
    "city": "Пашово",
    "county": "Хасково",
    "country": "България",
    "country_code": "bg"
  },
  {
    "naseleno_mqsto": "с. Сакарци",
    "amount": "8",
    "lat": "42.0458879",
    "lon": "26.2938103",
    "formatted": "6568 Сакарци, България",
    "district": null,
    "name": "Сакарци",
    "suburb": null,
    "postcode": "6568",
    "city": "Сакарци",
    "county": "Хасково",
    "country": "България",
    "country_code": "bg"
  },
  {
    "naseleno_mqsto": "с. Филипово",
    "amount": "8",
    "lat": "41.9148401",
    "lon": "26.5164699",
    "formatted": "Филипово, Хасково, България",
    "district": null,
    "name": null,
    "suburb": null,
    "postcode": null,
    "city": "Филипово",
    "county": "Хасково",
    "country": "България",
    "country_code": "bg"
  },
  {
    "naseleno_mqsto": "с. Дрипчево",
    "amount": "8",
    "lat": "41.9806331",
    "lon": "26.2176263",
    "formatted": "6548 Дрипчево, България",
    "district": null,
    "name": "Дрипчево",
    "suburb": null,
    "postcode": "6548",
    "city": "Дрипчево",
    "county": "Хасково",
    "country": "България",
    "country_code": "bg"
  },
  {
    "naseleno_mqsto": "с. Давери",
    "amount": "9",
    "lat": "42.93639",
    "lon": "25.99033",
    "formatted": "Давери, Велико Търново, България",
    "district": null,
    "name": "Давери",
    "suburb": null,
    "postcode": null,
    "city": "Давери",
    "county": "Велико Търново",
    "country": "България",
    "country_code": "bg"
  },
  {
    "naseleno_mqsto": "с. Дебели рът",
    "amount": "9",
    "lat": "43.0050649",
    "lon": "25.9933841",
    "formatted": "Дебели рът, Велико Търново, България",
    "district": null,
    "name": "Дебели рът",
    "suburb": null,
    "postcode": null,
    "city": "Дебели рът",
    "county": "Велико Търново",
    "country": "България",
    "country_code": "bg"
  },
  {
    "naseleno_mqsto": "с. Харваловци",
    "amount": "9",
    "lat": "42.94867",
    "lon": "25.73485",
    "formatted": "5093 Харваловци, България",
    "district": null,
    "name": "Харваловци",
    "suburb": null,
    "postcode": "5093",
    "city": "Харваловци",
    "county": "Велико Търново",
    "country": "България",
    "country_code": "bg"
  },
  {
    "naseleno_mqsto": "с. Черни дял",
    "amount": "9",
    "lat": "42.9700104",
    "lon": "26.0146583",
    "formatted": "Черни дял, Велико Търново, България",
    "district": null,
    "name": "Черни дял",
    "suburb": null,
    "postcode": null,
    "city": "Черни дял",
    "county": "Велико Търново",
    "country": "България",
    "country_code": "bg"
  },
  {
    "naseleno_mqsto": "с. Дединци",
    "amount": "9",
    "lat": "43.0242",
    "lon": "25.94647",
    "formatted": "Дединци, Велико Търново, България",
    "district": null,
    "name": "Дединци",
    "suburb": null,
    "postcode": null,
    "city": "Дединци",
    "county": "Велико Търново",
    "country": "България",
    "country_code": "bg"
  },
  {
    "naseleno_mqsto": "с. Беломъжите",
    "amount": "9",
    "lat": "42.9252591",
    "lon": "25.4077716",
    "formatted": "5343 Беломъжите, България",
    "district": null,
    "name": "Беломъжите",
    "suburb": null,
    "postcode": "5343",
    "city": "Беломъжите",
    "county": "Габрово",
    "country": "България",
    "country_code": "bg"
  },
  {
    "naseleno_mqsto": "с. Болтата",
    "amount": "9",
    "lat": "42.900342",
    "lon": "25.3927227",
    "formatted": "5340 Болтата, България",
    "district": null,
    "name": "Болтата",
    "suburb": null,
    "postcode": "5340",
    "city": "Болтата",
    "county": "Габрово",
    "country": "България",
    "country_code": "bg"
  },
  {
    "naseleno_mqsto": "с. Драгомани",
    "amount": "9",
    "lat": "42.9381658",
    "lon": "25.3979431",
    "formatted": "5343 Драгомани, България",
    "district": null,
    "name": "Драгомани",
    "suburb": null,
    "postcode": "5343",
    "city": "Драгомани",
    "county": "Габрово",
    "country": "България",
    "country_code": "bg"
  },
  {
    "naseleno_mqsto": "с. Бучуковци",
    "amount": "9",
    "lat": "42.9185",
    "lon": "25.44565",
    "formatted": "5380 Бучуковци, България",
    "district": null,
    "name": "Бучуковци",
    "suburb": null,
    "postcode": "5380",
    "city": "Бучуковци",
    "county": "Габрово",
    "country": "България",
    "country_code": "bg"
  },
  {
    "naseleno_mqsto": "с. Пейна",
    "amount": "9",
    "lat": "43.0037272",
    "lon": "25.4286139",
    "formatted": "Пейна, Габрово, България",
    "district": null,
    "name": "Пейна",
    "suburb": null,
    "postcode": null,
    "city": "Пейна",
    "county": "Габрово",
    "country": "България",
    "country_code": "bg"
  },
  {
    "naseleno_mqsto": "с. Ритя",
    "amount": "9",
    "lat": "42.9915",
    "lon": "25.42183",
    "formatted": "Ритя, Габрово, България",
    "district": null,
    "name": "Ритя",
    "suburb": null,
    "postcode": null,
    "city": "Ритя",
    "county": "Габрово",
    "country": "България",
    "country_code": "bg"
  },
  {
    "naseleno_mqsto": "с. Шопите",
    "amount": "9",
    "lat": "42.8492931",
    "lon": "24.9866402",
    "formatted": "Шопите, Габрово, България",
    "district": null,
    "name": "Шопите",
    "suburb": null,
    "postcode": null,
    "city": "Шопите",
    "county": "Габрово",
    "country": "България",
    "country_code": "bg"
  },
  {
    "naseleno_mqsto": "с. Тодореците",
    "amount": "9",
    "lat": "42.9032696",
    "lon": "25.4802886",
    "formatted": "5350 Тодореците, България",
    "district": null,
    "name": "Тодореците",
    "suburb": null,
    "postcode": "5350",
    "city": "Тодореците",
    "county": "Габрово",
    "country": "България",
    "country_code": "bg"
  },
  {
    "naseleno_mqsto": "с. Фъревци",
    "amount": "9",
    "lat": "42.89228",
    "lon": "25.59272",
    "formatted": "Фъревци, Габрово, България",
    "district": null,
    "name": "Фъревци",
    "suburb": null,
    "postcode": null,
    "city": "Фъревци",
    "county": "Габрово",
    "country": "България",
    "country_code": "bg"
  },
  {
    "naseleno_mqsto": "с. Христовци",
    "amount": "9",
    "lat": "42.89605",
    "lon": "25.90613",
    "formatted": "5017 Христовци, България",
    "district": null,
    "name": "Христовци",
    "suburb": null,
    "postcode": "5017",
    "city": "Христовци",
    "county": "Велико Търново",
    "country": "България",
    "country_code": "bg"
  },
  {
    "naseleno_mqsto": "с. Дунавец",
    "amount": "9",
    "lat": "44.0667",
    "lon": "26.74555",
    "formatted": "Дунавец, Силистра, България",
    "district": null,
    "name": null,
    "suburb": null,
    "postcode": null,
    "city": "Дунавец",
    "county": "Силистра",
    "country": "България",
    "country_code": "bg"
  },
  {
    "naseleno_mqsto": "с. Кракра",
    "amount": "9",
    "lat": "43.41627",
    "lon": "27.48103",
    "formatted": "Кракра, Варна, България",
    "district": null,
    "name": null,
    "suburb": null,
    "postcode": null,
    "city": "Кракра",
    "county": "Варна",
    "country": "България",
    "country_code": "bg"
  },
  {
    "naseleno_mqsto": "с. Лозница",
    "amount": "9",
    "lat": "43.41115895",
    "lon": "26.60932340232378",
    "formatted": "7247 Лозница, България",
    "district": null,
    "name": null,
    "suburb": null,
    "postcode": "7247",
    "city": "Лозница",
    "county": "Разград",
    "country": "България",
    "country_code": "bg"
  },
  {
    "naseleno_mqsto": "с. Било",
    "amount": "9",
    "lat": "43.64604",
    "lon": "28.40264",
    "formatted": "Било, Добрич, България",
    "district": null,
    "name": null,
    "suburb": null,
    "postcode": null,
    "city": "Било",
    "county": "Добрич",
    "country": "България",
    "country_code": "bg"
  },
  {
    "naseleno_mqsto": "с. Букак",
    "amount": "9",
    "lat": "43.0546897",
    "lon": "26.1713229",
    "formatted": "Букак, Търговище, България",
    "district": null,
    "name": null,
    "suburb": null,
    "postcode": null,
    "city": "Букак",
    "county": "Търговище",
    "country": "България",
    "country_code": "bg"
  },
  {
    "naseleno_mqsto": "с. Горна Златица",
    "amount": "9",
    "lat": "43.18281",
    "lon": "26.14637",
    "formatted": "Горна Златица, Търговище, България",
    "district": null,
    "name": null,
    "suburb": null,
    "postcode": null,
    "city": "Горна Златица",
    "county": "Търговище",
    "country": "България",
    "country_code": "bg"
  },
  {
    "naseleno_mqsto": "с. Лозица",
    "amount": "9",
    "lat": "42.7300935",
    "lon": "26.7802662",
    "formatted": "8466 Лозица, България",
    "district": null,
    "name": "Лозица",
    "suburb": null,
    "postcode": "8466",
    "city": "Лозица",
    "county": "Бургас",
    "country": "България",
    "country_code": "bg"
  },
  {
    "naseleno_mqsto": "с. Жълтопоп",
    "amount": "9",
    "lat": "42.6674504",
    "lon": "25.7113034",
    "formatted": "Жълтопоп, Стара Загора, България",
    "district": null,
    "name": "Жълтопоп",
    "suburb": null,
    "postcode": null,
    "city": "Жълтопоп",
    "county": "Стара Загора",
    "country": "България",
    "country_code": "bg"
  },
  {
    "naseleno_mqsto": "с. Лисия",
    "amount": "9",
    "lat": "42.0620436",
    "lon": "22.9380721",
    "formatted": "2743 Лисия, България",
    "district": null,
    "name": "Лисия",
    "suburb": null,
    "postcode": "2743",
    "city": "Лисия",
    "county": "Благоевград",
    "country": "България",
    "country_code": "bg"
  },
  {
    "naseleno_mqsto": "с. Кашина",
    "amount": "9",
    "lat": "41.5474733",
    "lon": "23.4687086",
    "formatted": "2820 Кашина, България",
    "district": null,
    "name": "Кашина",
    "suburb": null,
    "postcode": "2820",
    "city": "Кашина",
    "county": "Благоевград",
    "country": "България",
    "country_code": "bg"
  },
  {
    "naseleno_mqsto": "с. Раково",
    "amount": "9",
    "lat": "42.0851296",
    "lon": "22.7168512",
    "formatted": "Раково, Кюстендил, България",
    "district": null,
    "name": "Раково",
    "suburb": null,
    "postcode": null,
    "city": "Раково",
    "county": "Кюстендил",
    "country": "България",
    "country_code": "bg"
  },
  {
    "naseleno_mqsto": "с. Брест",
    "amount": "9",
    "lat": "42.4623382",
    "lon": "22.6046218",
    "formatted": "Брест, Кюстендил, България",
    "district": null,
    "name": "Брест",
    "suburb": null,
    "postcode": null,
    "city": "Брест",
    "county": "Кюстендил",
    "country": "България",
    "country_code": "bg"
  },
  {
    "naseleno_mqsto": "с. Гоз",
    "amount": "9",
    "lat": "42.7508101",
    "lon": "22.9384472",
    "formatted": "Гоз, Перник, България",
    "district": null,
    "name": "Гоз",
    "suburb": null,
    "postcode": null,
    "city": "Гоз",
    "county": "Перник",
    "country": "България",
    "country_code": "bg"
  },
  {
    "naseleno_mqsto": "с. Завала",
    "amount": "9",
    "lat": "42.8249672",
    "lon": "22.8010832",
    "formatted": "Завала, Перник, България",
    "district": null,
    "name": "Завала",
    "suburb": null,
    "postcode": null,
    "city": "Завала",
    "county": "Перник",
    "country": "България",
    "country_code": "bg"
  },
  {
    "naseleno_mqsto": "с. Кривонос",
    "amount": "9",
    "lat": "42.7401494",
    "lon": "22.7543861",
    "formatted": "Кривонос, Перник, България",
    "district": null,
    "name": "Кривонос",
    "suburb": null,
    "postcode": null,
    "city": "Кривонос",
    "county": "Перник",
    "country": "България",
    "country_code": "bg"
  },
  {
    "naseleno_mqsto": "с. Дълга лука",
    "amount": "9",
    "lat": "42.6388703",
    "lon": "22.5558567",
    "formatted": "Дълга лука, Перник, България",
    "district": null,
    "name": null,
    "suburb": null,
    "postcode": null,
    "city": "Дълга лука",
    "county": "Перник",
    "country": "България",
    "country_code": "bg"
  },
  {
    "naseleno_mqsto": "с. Станинци",
    "amount": "9",
    "lat": "43.0517369",
    "lon": "22.9197389",
    "formatted": "Станинци, Софийска, България",
    "district": null,
    "name": "Станинци",
    "suburb": null,
    "postcode": null,
    "city": "Станинци",
    "county": "Софийска",
    "country": "България",
    "country_code": "bg"
  },
  {
    "naseleno_mqsto": "с. Начево",
    "amount": "9",
    "lat": "42.881525",
    "lon": "22.8256188",
    "formatted": "Начево, Софийска, България",
    "district": null,
    "name": "Начево",
    "suburb": null,
    "postcode": null,
    "city": "Начево",
    "county": "Софийска",
    "country": "България",
    "country_code": "bg"
  },
  {
    "naseleno_mqsto": "с. Чеканец",
    "amount": "9",
    "lat": "42.8571052",
    "lon": "22.8058377",
    "formatted": "Чеканец, Софийска, България",
    "district": null,
    "name": "Чеканец",
    "suburb": null,
    "postcode": null,
    "city": "Чеканец",
    "county": "Софийска",
    "country": "България",
    "country_code": "bg"
  },
  {
    "naseleno_mqsto": "с. Чепърлинци",
    "amount": "9",
    "lat": "43.0186807",
    "lon": "22.9058943",
    "formatted": "Чепърлинци, Софийска, България",
    "district": null,
    "name": "Чепърлинци",
    "suburb": null,
    "postcode": null,
    "city": "Чепърлинци",
    "county": "Софийска",
    "country": "България",
    "country_code": "bg"
  },
  {
    "naseleno_mqsto": "с. Бузяковци",
    "amount": "9",
    "lat": "42.53282",
    "lon": "23.78907",
    "formatted": "Бузяковци, Софийска, България",
    "district": null,
    "name": "Бузяковци",
    "suburb": null,
    "postcode": null,
    "city": "Бузяковци",
    "county": "Софийска",
    "country": "България",
    "country_code": "bg"
  },
  {
    "naseleno_mqsto": "с. Любница",
    "amount": "9",
    "lat": "42.4019346",
    "lon": "23.9698405",
    "formatted": "Любница, Софийска, България",
    "district": null,
    "name": "Любница",
    "suburb": null,
    "postcode": null,
    "city": "Любница",
    "county": "Софийска",
    "country": "България",
    "country_code": "bg"
  },
  {
    "naseleno_mqsto": "с. Паспал",
    "amount": "9",
    "lat": "41.5601",
    "lon": "25.03014",
    "formatted": "6789 Паспал, България",
    "district": null,
    "name": "Паспал",
    "suburb": null,
    "postcode": "6789",
    "city": "Паспал",
    "county": "Кърджали",
    "country": "България",
    "country_code": "bg"
  },
  {
    "naseleno_mqsto": "с. Калайджиево",
    "amount": "9",
    "lat": "41.40878",
    "lon": "25.75258",
    "formatted": "Калайджиево, Кърджали, България",
    "district": null,
    "name": "Калайджиево",
    "suburb": null,
    "postcode": null,
    "city": "Калайджиево",
    "county": "Кърджали",
    "country": "България",
    "country_code": "bg"
  },
  {
    "naseleno_mqsto": "с. Бор",
    "amount": "9",
    "lat": "41.8345938",
    "lon": "25.0465392",
    "formatted": "Бор, Пловдив, България",
    "district": null,
    "name": "Бор",
    "suburb": null,
    "postcode": null,
    "city": "Бор",
    "county": "Пловдив",
    "country": "България",
    "country_code": "bg"
  },
  {
    "naseleno_mqsto": "с. Гудевица",
    "amount": "9",
    "lat": "41.4527562",
    "lon": "24.6494282",
    "formatted": "4761 Гудевица, България",
    "district": null,
    "name": "Гудевица",
    "suburb": null,
    "postcode": "4761",
    "city": "Гудевица",
    "county": "Смолян",
    "country": "България",
    "country_code": "bg"
  },
  {
    "naseleno_mqsto": "с. Върба",
    "amount": "10",
    "lat": "43.6905029",
    "lon": "22.6269762",
    "formatted": "Върба, Видин, България",
    "district": null,
    "name": "Върба",
    "suburb": null,
    "postcode": null,
    "city": "Върба",
    "county": "Видин",
    "country": "България",
    "country_code": "bg"
  },
  {
    "naseleno_mqsto": "с. Нешевци",
    "amount": "10",
    "lat": "42.8761",
    "lon": "25.90643",
    "formatted": "5017 Нешевци, България",
    "district": null,
    "name": "Нешевци",
    "suburb": null,
    "postcode": "5017",
    "city": "Нешевци",
    "county": "Велико Търново",
    "country": "България",
    "country_code": "bg"
  },
  {
    "naseleno_mqsto": "с. Хъневци",
    "amount": "10",
    "lat": "42.88275",
    "lon": "25.91716",
    "formatted": "5017 Хъневци, България",
    "district": null,
    "name": "Хъневци",
    "suburb": null,
    "postcode": "5017",
    "city": "Хъневци",
    "county": "Велико Търново",
    "country": "България",
    "country_code": "bg"
  },
  {
    "naseleno_mqsto": "с. Врабците",
    "amount": "10",
    "lat": "42.86185",
    "lon": "25.20849",
    "formatted": "5347 Врабците, България",
    "district": null,
    "name": "Врабците",
    "suburb": null,
    "postcode": "5347",
    "city": "Врабците",
    "county": "Габрово",
    "country": "България",
    "country_code": "bg"
  },
  {
    "naseleno_mqsto": "с. Пъртевци",
    "amount": "10",
    "lat": "42.8488647",
    "lon": "25.243613",
    "formatted": "Пъртевци, Габрово, България",
    "district": null,
    "name": "Пъртевци",
    "suburb": null,
    "postcode": null,
    "city": "Пъртевци",
    "county": "Габрово",
    "country": "България",
    "country_code": "bg"
  },
  {
    "naseleno_mqsto": "с. Стефаново",
    "amount": "10",
    "lat": "43.4951065",
    "lon": "27.8572293",
    "formatted": "Стефаново, Добрич, България",
    "district": null,
    "name": null,
    "suburb": null,
    "postcode": null,
    "city": "Стефаново",
    "county": "Добрич",
    "country": "България",
    "country_code": "bg"
  },
  {
    "naseleno_mqsto": "с. Геша",
    "amount": "10",
    "lat": "42.98291",
    "lon": "25.43651",
    "formatted": "Геша, Габрово, България",
    "district": null,
    "name": "Геша",
    "suburb": null,
    "postcode": null,
    "city": "Геша",
    "county": "Габрово",
    "country": "България",
    "country_code": "bg"
  },
  {
    "naseleno_mqsto": "с. Азманите",
    "amount": "10",
    "lat": "42.8329709",
    "lon": "25.4626519",
    "formatted": "5360 Азманите, България",
    "district": null,
    "name": "Азманите",
    "suburb": null,
    "postcode": "5360",
    "city": "Азманите",
    "county": "Габрово",
    "country": "България",
    "country_code": "bg"
  },
  {
    "naseleno_mqsto": "с. Чакалите",
    "amount": "10",
    "lat": "42.91528",
    "lon": "25.98093",
    "formatted": "Чакали, Велико Търново, България",
    "district": null,
    "name": "Чакали",
    "suburb": null,
    "postcode": null,
    "city": "Чакали",
    "county": "Велико Търново",
    "country": "България",
    "country_code": "bg"
  },
  {
    "naseleno_mqsto": "с. Стрелково",
    "amount": "10",
    "lat": "43.93589",
    "lon": "27.4358",
    "formatted": "Стрелково, Силистра, България",
    "district": null,
    "name": null,
    "suburb": null,
    "postcode": null,
    "city": "Стрелково",
    "county": "Силистра",
    "country": "България",
    "country_code": "bg"
  },
  {
    "naseleno_mqsto": "с. Твърдица",
    "amount": "10",
    "lat": "42.7014434",
    "lon": "25.8979171",
    "formatted": "Твърдица, Сливен, България",
    "district": null,
    "name": null,
    "suburb": null,
    "postcode": null,
    "city": "Твърдица",
    "county": "Сливен",
    "country": "България",
    "country_code": "bg"
  },
  {
    "naseleno_mqsto": "с. Манастирица",
    "amount": "10",
    "lat": "43.25482",
    "lon": "26.07414",
    "formatted": "Манастирица, Търговище, България",
    "district": null,
    "name": null,
    "suburb": null,
    "postcode": null,
    "city": "Манастирица",
    "county": "Търговище",
    "country": "България",
    "country_code": "bg"
  },
  {
    "naseleno_mqsto": "с. Беджене",
    "amount": "10",
    "lat": "43.45018",
    "lon": "27.26483",
    "formatted": "Беджене, Шумен, България",
    "district": null,
    "name": null,
    "suburb": null,
    "postcode": null,
    "city": "Беджене",
    "county": "Шумен",
    "country": "България",
    "country_code": "bg"
  },
  {
    "naseleno_mqsto": "с. Влахи",
    "amount": "10",
    "lat": "41.7400776",
    "lon": "23.2293761",
    "formatted": "2841 Влахи, България",
    "district": null,
    "name": "Влахи",
    "suburb": null,
    "postcode": "2841",
    "city": "Влахи",
    "county": "Благоевград",
    "country": "България",
    "country_code": "bg"
  },
  {
    "naseleno_mqsto": "с. Кръстилци",
    "amount": "10",
    "lat": "41.54894",
    "lon": "23.20237",
    "formatted": "2805 Кръстилци, България",
    "district": null,
    "name": "Кръстилци",
    "suburb": null,
    "postcode": "2805",
    "city": "Кръстилци",
    "county": "Благоевград",
    "country": "България",
    "country_code": "bg"
  },
  {
    "naseleno_mqsto": "с. Циклово",
    "amount": "10",
    "lat": "42.2061168",
    "lon": "22.993529",
    "formatted": "Циклово, Кюстендил, България",
    "district": null,
    "name": "Циклово",
    "suburb": null,
    "postcode": null,
    "city": "Циклово",
    "county": "Кюстендил",
    "country": "България",
    "country_code": "bg"
  },
  {
    "naseleno_mqsto": "с. Савойски",
    "amount": "10",
    "lat": "42.14006",
    "lon": "22.64602",
    "formatted": "Савойски, Кюстендил, България",
    "district": null,
    "name": "Савойски",
    "suburb": null,
    "postcode": null,
    "city": "Кюстендил",
    "county": "Кюстендил",
    "country": "България",
    "country_code": "bg"
  },
  {
    "naseleno_mqsto": "с. Цървена ябълка",
    "amount": "10",
    "lat": "42.15859",
    "lon": "22.61345",
    "formatted": "Цървена ябълка, Кюстендил, България",
    "district": null,
    "name": "Цървена ябълка",
    "suburb": null,
    "postcode": null,
    "city": "Кюстендил",
    "county": "Кюстендил",
    "country": "България",
    "country_code": "bg"
  },
  {
    "naseleno_mqsto": "с. Душинци",
    "amount": "10",
    "lat": "43.0799423",
    "lon": "23.1023241",
    "formatted": "Душинци, Гинци, България",
    "district": null,
    "name": "Душинци",
    "suburb": "Душинци",
    "postcode": null,
    "city": "Гинци",
    "county": "Софийска",
    "country": "България",
    "country_code": "bg"
  },
  {
    "naseleno_mqsto": "с. Пенкьовци",
    "amount": "10",
    "lat": "42.6093359",
    "lon": "22.6199361",
    "formatted": "Пенкьовци, Перник, България",
    "district": null,
    "name": null,
    "suburb": null,
    "postcode": null,
    "city": "Пенкьовци",
    "county": "Перник",
    "country": "България",
    "country_code": "bg"
  },
  {
    "naseleno_mqsto": "с. Цегриловци",
    "amount": "10",
    "lat": "42.781874",
    "lon": "22.510112",
    "formatted": "Цегриловци, Перник, България",
    "district": null,
    "name": "Цегриловци",
    "suburb": null,
    "postcode": null,
    "city": "Цегриловци",
    "county": "Перник",
    "country": "България",
    "country_code": "bg"
  },
  {
    "naseleno_mqsto": "с. Нейкьовец",
    "amount": "10",
    "lat": "42.4311431",
    "lon": "24.0351643",
    "formatted": "Нейкьовец, Софийска, България",
    "district": null,
    "name": "Нейкьовец",
    "suburb": null,
    "postcode": null,
    "city": "Нейкьовец",
    "county": "Софийска",
    "country": "България",
    "country_code": "bg"
  },
  {
    "naseleno_mqsto": "с. Габрина",
    "amount": "10",
    "lat": "41.6149869",
    "lon": "24.9655318",
    "formatted": "4940 Габрина, България",
    "district": null,
    "name": "Габрина",
    "suburb": null,
    "postcode": "4940",
    "city": "Габрина",
    "county": "Смолян",
    "country": "България",
    "country_code": "bg"
  },
  {
    "naseleno_mqsto": "с. Миле",
    "amount": "10",
    "lat": "41.5846728",
    "lon": "24.9914671",
    "formatted": "4940 Миле, България",
    "district": null,
    "name": "Миле",
    "suburb": null,
    "postcode": "4940",
    "city": "Миле",
    "county": "Смолян",
    "country": "България",
    "country_code": "bg"
  },
  {
    "naseleno_mqsto": "с. Кремене",
    "amount": "10",
    "lat": "41.53804",
    "lon": "24.62635",
    "formatted": "4765 Кремене, България",
    "district": null,
    "name": "Кремене",
    "suburb": null,
    "postcode": "4765",
    "city": "Кремене",
    "county": "Смолян",
    "country": "България",
    "country_code": "bg"
  },
  {
    "naseleno_mqsto": "с. Присадец",
    "amount": "10",
    "lat": "41.89625",
    "lon": "26.5346599",
    "formatted": "Присадец, Хасково, България",
    "district": null,
    "name": null,
    "suburb": null,
    "postcode": null,
    "city": "Присадец",
    "county": "Хасково",
    "country": "България",
    "country_code": "bg"
  },
  {
    "naseleno_mqsto": "с. Крачимир",
    "amount": "11",
    "lat": "43.58334",
    "lon": "22.55615",
    "formatted": "Крачимир, Видин, България",
    "district": null,
    "name": "Крачимир",
    "suburb": null,
    "postcode": null,
    "city": "Крачимир",
    "county": "Видин",
    "country": "България",
    "country_code": "bg"
  },
  {
    "naseleno_mqsto": "с. Гащевци",
    "amount": "11",
    "lat": "42.91442",
    "lon": "25.66739",
    "formatted": "5045 Гащевци, България",
    "district": null,
    "name": "Гащевци",
    "suburb": null,
    "postcode": "5045",
    "city": "Гащевци",
    "county": "Велико Търново",
    "country": "България",
    "country_code": "bg"
  },
  {
    "naseleno_mqsto": "с. Долни Марян",
    "amount": "11",
    "lat": "42.94223",
    "lon": "25.94831",
    "formatted": "Долни Марян, Велико Търново, България",
    "district": null,
    "name": "Долни Марян",
    "suburb": null,
    "postcode": null,
    "city": "Долни Марян",
    "county": "Велико Търново",
    "country": "България",
    "country_code": "bg"
  },
  {
    "naseleno_mqsto": "с. Попрусевци",
    "amount": "11",
    "lat": "42.94206",
    "lon": "25.97707",
    "formatted": "Попрусевци, Велико Търново, България",
    "district": null,
    "name": "Попрусевци",
    "suburb": null,
    "postcode": null,
    "city": "Попрусевци",
    "county": "Велико Търново",
    "country": "България",
    "country_code": "bg"
  },
  {
    "naseleno_mqsto": "с. Горнова могила",
    "amount": "11",
    "lat": "42.844",
    "lon": "25.26737",
    "formatted": "5307 Горнова могила, България",
    "district": null,
    "name": "Горнова могила",
    "suburb": null,
    "postcode": "5307",
    "city": "Горнова могила",
    "county": "Габрово",
    "country": "България",
    "country_code": "bg"
  },
  {
    "naseleno_mqsto": "с. Костадините",
    "amount": "11",
    "lat": "42.827415",
    "lon": "25.3624393",
    "formatted": "5301 Костадините, България",
    "district": null,
    "name": "Костадините",
    "suburb": null,
    "postcode": "5301",
    "city": "Костадините",
    "county": "Габрово",
    "country": "България",
    "country_code": "bg"
  },
  {
    "naseleno_mqsto": "с. Солари",
    "amount": "11",
    "lat": "42.9416417",
    "lon": "25.3122497",
    "formatted": "5312 Солари, България",
    "district": null,
    "name": "Солари",
    "suburb": null,
    "postcode": "5312",
    "city": "Солари",
    "county": "Габрово",
    "country": "България",
    "country_code": "bg"
  },
  {
    "naseleno_mqsto": "с. Спанци",
    "amount": "11",
    "lat": "42.9525764",
    "lon": "25.297106",
    "formatted": "Спанци, Габрово, България",
    "district": null,
    "name": "Спанци",
    "suburb": null,
    "postcode": null,
    "city": "Спанци",
    "county": "Габрово",
    "country": "България",
    "country_code": "bg"
  },
  {
    "naseleno_mqsto": "с. Спасовци",
    "amount": "11",
    "lat": "42.8897281",
    "lon": "25.3849728",
    "formatted": "5340 Спасовци, България",
    "district": null,
    "name": "Спасовци",
    "suburb": null,
    "postcode": "5340",
    "city": "Спасовци",
    "county": "Габрово",
    "country": "България",
    "country_code": "bg"
  },
  {
    "naseleno_mqsto": "с. Шарани",
    "amount": "11",
    "lat": "42.92258",
    "lon": "25.32583",
    "formatted": "5302 Шарани, България",
    "district": null,
    "name": "Шарани",
    "suburb": null,
    "postcode": "5302",
    "city": "Шарани",
    "county": "Габрово",
    "country": "България",
    "country_code": "bg"
  },
  {
    "naseleno_mqsto": "с. Каломен",
    "amount": "11",
    "lat": "43.0304438",
    "lon": "25.4244124",
    "formatted": "Каломен, Габрово, България",
    "district": null,
    "name": "Каломен",
    "suburb": null,
    "postcode": null,
    "city": "Каломен",
    "county": "Габрово",
    "country": "България",
    "country_code": "bg"
  },
  {
    "naseleno_mqsto": "с. Йововци",
    "amount": "11",
    "lat": "42.8049946",
    "lon": "25.4463403",
    "formatted": "5360 Йововци, България",
    "district": null,
    "name": "Йововци",
    "suburb": null,
    "postcode": "5360",
    "city": "Йововци",
    "county": "Габрово",
    "country": "България",
    "country_code": "bg"
  },
  {
    "naseleno_mqsto": "с. Милевци",
    "amount": "11",
    "lat": "42.85262",
    "lon": "25.51581",
    "formatted": "5350 Милевци, България",
    "district": null,
    "name": "Милевци",
    "suburb": null,
    "postcode": "5350",
    "city": "Милевци",
    "county": "Габрово",
    "country": "България",
    "country_code": "bg"
  },
  {
    "naseleno_mqsto": "с. Зимница",
    "amount": "11",
    "lat": "42.5853465",
    "lon": "25.6807295",
    "formatted": "Зимница, Стара Загора, България",
    "district": null,
    "name": null,
    "suburb": null,
    "postcode": null,
    "city": "Зимница",
    "county": "Стара Загора",
    "country": "България",
    "country_code": "bg"
  },
  {
    "naseleno_mqsto": "с. Стройновци",
    "amount": "11",
    "lat": "42.98214",
    "lon": "26.20443",
    "formatted": "7963 Стройновци, България",
    "district": null,
    "name": "Стройновци",
    "suburb": null,
    "postcode": "7963",
    "city": "Стройновци",
    "county": "Търговище",
    "country": "България",
    "country_code": "bg"
  },
  {
    "naseleno_mqsto": "с. Кондолово",
    "amount": "11",
    "lat": "42.0926993",
    "lon": "27.6823261",
    "formatted": "8275 Кондолово, България",
    "district": null,
    "name": "Кондолово",
    "suburb": null,
    "postcode": "8275",
    "city": "Кондолово",
    "county": "Бургас",
    "country": "България",
    "country_code": "bg"
  },
  {
    "naseleno_mqsto": "с. Горна Секирна",
    "amount": "11",
    "lat": "42.6789532",
    "lon": "22.6655138",
    "formatted": "Горна Секирна, Перник, България",
    "district": null,
    "name": "Горна Секирна",
    "suburb": null,
    "postcode": null,
    "city": "Горна Секирна",
    "county": "Перник",
    "country": "България",
    "country_code": "bg"
  },
  {
    "naseleno_mqsto": "с. Красава",
    "amount": "11",
    "lat": "42.79658",
    "lon": "22.87034",
    "formatted": "Красава, Перник, България",
    "district": null,
    "name": "Красава",
    "suburb": null,
    "postcode": null,
    "city": "Красава",
    "county": "Перник",
    "country": "България",
    "country_code": "bg"
  },
  {
    "naseleno_mqsto": "с. Ръжавец",
    "amount": "11",
    "lat": "42.7118476",
    "lon": "22.7285308",
    "formatted": "Ръжавец, Перник, България",
    "district": null,
    "name": "Ръжавец",
    "suburb": null,
    "postcode": null,
    "city": "Ръжавец",
    "county": "Перник",
    "country": "България",
    "country_code": "bg"
  },
  {
    "naseleno_mqsto": "с. Ярославци",
    "amount": "11",
    "lat": "42.8132494",
    "lon": "22.8225516",
    "formatted": "Ярославци, Перник, България",
    "district": null,
    "name": "Ярославци",
    "suburb": null,
    "postcode": null,
    "city": "Ярославци",
    "county": "Перник",
    "country": "България",
    "country_code": "bg"
  },
  {
    "naseleno_mqsto": "с. Банкя",
    "amount": "11",
    "lat": "42.7101251",
    "lon": "23.1464966",
    "formatted": "1393 Банкя, България",
    "district": null,
    "name": null,
    "suburb": null,
    "postcode": "1393",
    "city": "Банкя",
    "county": "София-град",
    "country": "България",
    "country_code": "bg"
  },
  {
    "naseleno_mqsto": "с. Реяновци",
    "amount": "11",
    "lat": "42.78374",
    "lon": "22.48616",
    "formatted": "Реяновци, Перник, България",
    "district": null,
    "name": "Реяновци",
    "suburb": null,
    "postcode": null,
    "city": "Реяновци",
    "county": "Перник",
    "country": "България",
    "country_code": "bg"
  },
  {
    "naseleno_mqsto": "с. Студен извор",
    "amount": "11",
    "lat": "42.7919211",
    "lon": "22.5968273",
    "formatted": "2487 Студен извор, България",
    "district": null,
    "name": "Студен извор",
    "suburb": null,
    "postcode": "2487",
    "city": "Студен извор",
    "county": "Перник",
    "country": "България",
    "country_code": "bg"
  },
  {
    "naseleno_mqsto": "с. Грълска падина",
    "amount": "11",
    "lat": "42.8908264",
    "lon": "22.7670861",
    "formatted": "Грълска падина, Софийска, България",
    "district": null,
    "name": "Грълска падина",
    "suburb": null,
    "postcode": null,
    "city": "Грълска падина",
    "county": "Софийска",
    "country": "България",
    "country_code": "bg"
  },
  {
    "naseleno_mqsto": "с. Левище",
    "amount": "11",
    "lat": "43.0887167",
    "lon": "23.4639643",
    "formatted": "Левище, Софийска, България",
    "district": null,
    "name": "Левище",
    "suburb": null,
    "postcode": null,
    "city": "Левище",
    "county": "Софийска",
    "country": "България",
    "country_code": "bg"
  },
  {
    "naseleno_mqsto": "с. Жълти рид",
    "amount": "11",
    "lat": "41.4632879",
    "lon": "25.3344404",
    "formatted": "Жълти рид, Кърджали, България",
    "district": null,
    "name": "Жълти рид",
    "suburb": null,
    "postcode": null,
    "city": "Жълти рид",
    "county": "Кърджали",
    "country": "България",
    "country_code": "bg"
  },
  {
    "naseleno_mqsto": "с. Цвятово",
    "amount": "11",
    "lat": "41.53937",
    "lon": "25.28149",
    "formatted": "6636 Цвятово, България",
    "district": null,
    "name": "Цвятово",
    "suburb": null,
    "postcode": "6636",
    "city": "Цвятово",
    "county": "Кърджали",
    "country": "България",
    "country_code": "bg"
  },
  {
    "naseleno_mqsto": "с. Войново",
    "amount": "11",
    "lat": "43.9760144",
    "lon": "27.4408446",
    "formatted": "Войново, Силистра, България",
    "district": null,
    "name": null,
    "suburb": null,
    "postcode": null,
    "city": "Войново",
    "county": "Силистра",
    "country": "България",
    "country_code": "bg"
  },
  {
    "naseleno_mqsto": "с. Борика",
    "amount": "11",
    "lat": "42.4867393",
    "lon": "23.6610012",
    "formatted": "Борика, Софийска, България",
    "district": null,
    "name": "Борика",
    "suburb": null,
    "postcode": null,
    "city": "Борика",
    "county": "Софийска",
    "country": "България",
    "country_code": "bg"
  },
  {
    "naseleno_mqsto": "с. Мочуре",
    "amount": "11",
    "lat": "41.4053188",
    "lon": "24.7636171",
    "formatted": "Мочуре, Смолян, България",
    "district": null,
    "name": "Мочуре",
    "suburb": null,
    "postcode": null,
    "city": "Мочуре",
    "county": "Смолян",
    "country": "България",
    "country_code": "bg"
  },
  {
    "naseleno_mqsto": "с. Алиговска",
    "amount": "11",
    "lat": "41.4489349",
    "lon": "24.641583",
    "formatted": "4761 Алиговска, България",
    "district": null,
    "name": "Алиговска",
    "suburb": null,
    "postcode": "4761",
    "city": "Алиговска",
    "county": "Смолян",
    "country": "България",
    "country_code": "bg"
  },
  {
    "naseleno_mqsto": "с. Магарджица",
    "amount": "11",
    "lat": "41.65631",
    "lon": "24.5627",
    "formatted": "4838 Магарджица, България",
    "district": null,
    "name": "Магарджица",
    "suburb": null,
    "postcode": "4838",
    "city": "Магарджица",
    "county": "Смолян",
    "country": "България",
    "country_code": "bg"
  },
  {
    "naseleno_mqsto": "с. Нова ливада",
    "amount": "11",
    "lat": "41.49474",
    "lon": "25.9357",
    "formatted": "Нова ливада, Хасково, България",
    "district": null,
    "name": "Нова ливада",
    "suburb": null,
    "postcode": null,
    "city": "Нова ливада",
    "county": "Хасково",
    "country": "България",
    "country_code": "bg"
  },
  {
    "naseleno_mqsto": "с. Момино",
    "amount": "11",
    "lat": "41.85227",
    "lon": "25.73013",
    "formatted": "Момино, Хасково, България",
    "district": null,
    "name": "Момино",
    "suburb": null,
    "postcode": null,
    "city": "Момино",
    "county": "Хасково",
    "country": "България",
    "country_code": "bg"
  },
  {
    "naseleno_mqsto": "с. Шодековци",
    "amount": "12",
    "lat": "42.93485",
    "lon": "25.56392",
    "formatted": "Шодековци, Велико Търново, България",
    "district": null,
    "name": "Шодековци",
    "suburb": null,
    "postcode": null,
    "city": "Шодековци",
    "county": "Велико Търново",
    "country": "България",
    "country_code": "bg"
  },
  {
    "naseleno_mqsto": "с. Вълчовци",
    "amount": "12",
    "lat": "42.94309",
    "lon": "25.82266",
    "formatted": "Вълчовци, Велико Търново, България",
    "district": null,
    "name": "Вълчовци",
    "suburb": null,
    "postcode": null,
    "city": "Вълчовци",
    "county": "Велико Търново",
    "country": "България",
    "country_code": "bg"
  },
  {
    "naseleno_mqsto": "с. Вълчовци",
    "amount": "12",
    "lat": "42.94309",
    "lon": "25.82266",
    "formatted": "Вълчовци, Велико Търново, България",
    "district": null,
    "name": "Вълчовци",
    "suburb": null,
    "postcode": null,
    "city": "Вълчовци",
    "county": "Велико Търново",
    "country": "България",
    "country_code": "bg"
  },
  {
    "naseleno_mqsto": "с. Марафелци",
    "amount": "12",
    "lat": "42.9439546",
    "lon": "25.8451867",
    "formatted": "5070 Марафелци, България",
    "district": null,
    "name": "Марафелци",
    "suburb": null,
    "postcode": "5070",
    "city": "Марафелци",
    "county": "Велико Търново",
    "country": "България",
    "country_code": "bg"
  },
  {
    "naseleno_mqsto": "с. Парчовци",
    "amount": "12",
    "lat": "42.94843",
    "lon": "25.2964193",
    "formatted": "5345 Парчовци, България",
    "district": null,
    "name": "Парчовци",
    "suburb": null,
    "postcode": "5345",
    "city": "Парчовци",
    "county": "Габрово",
    "country": "България",
    "country_code": "bg"
  },
  {
    "naseleno_mqsto": "с. Добревци",
    "amount": "12",
    "lat": "42.8394556",
    "lon": "25.8139802",
    "formatted": "Добревци, Велико Търново, България",
    "district": null,
    "name": "Добревци",
    "suburb": null,
    "postcode": null,
    "city": "Добревци",
    "county": "Велико Търново",
    "country": "България",
    "country_code": "bg"
  },
  {
    "naseleno_mqsto": "с. Радино",
    "amount": "12",
    "lat": "42.83953",
    "lon": "25.44389",
    "formatted": "5360 Радино, България",
    "district": null,
    "name": "Радино",
    "suburb": null,
    "postcode": "5360",
    "city": "Радино",
    "county": "Габрово",
    "country": "България",
    "country_code": "bg"
  },
  {
    "naseleno_mqsto": "с. Травник",
    "amount": "12",
    "lat": "43.59467",
    "lon": "28.27385",
    "formatted": "Травник, Добрич, България",
    "district": null,
    "name": null,
    "suburb": null,
    "postcode": null,
    "city": "Травник",
    "county": "Добрич",
    "country": "България",
    "country_code": "bg"
  },
  {
    "naseleno_mqsto": "с. Белеврен",
    "amount": "12",
    "lat": "42.09362",
    "lon": "27.17797",
    "formatted": "8345 Белеврен, България",
    "district": null,
    "name": "Белеврен",
    "suburb": null,
    "postcode": "8345",
    "city": "Белеврен",
    "county": "Бургас",
    "country": "България",
    "country_code": "bg"
  },
  {
    "naseleno_mqsto": "с. Дворище",
    "amount": "12",
    "lat": "42.339391",
    "lon": "22.7495206",
    "formatted": "Дворище, 2540 Кюстендил, България",
    "district": null,
    "name": "Дворище",
    "suburb": null,
    "postcode": "2540",
    "city": "Кюстендил",
    "county": "Кюстендил",
    "country": "България",
    "country_code": "bg"
  }
]
